City,Lat,Lon,Max Temp,Humidity,Cloudiness,Wind Speed,Country,Date
Brasília,-15.78,-47.93,82.4,34,40,6.93,BR,1594580128
Dikson,73.51,80.55,41.97,97,98,5.86,RU,1594579916
Bluff,-46.6,168.33,39.0,83,72,3.0,NZ,1594580214
Punta Arenas,-53.15,-70.92,39.2,79,40,17.22,CL,1594580214
Ushtobe,45.25,77.98,67.33,43,0,8.16,KZ,1594580067
Esim,4.87,-2.24,74.75,87,39,6.89,GH,1594579494
Māngrol,21.12,70.12,83.8,81,75,16.08,IN,1594580214
Kumul,42.8,93.45,77.56,35,27,8.72,CN,1594579623
Hermanus,-34.42,19.23,55.99,56,0,14.0,ZA,1594580215
Mar del Plata,-38.0,-57.56,50.0,39,20,19.46,AR,1594579976
Nicoya,10.15,-85.45,87.8,62,75,9.17,CR,1594580215
Vaini,-21.2,-175.2,69.8,88,75,13.87,TO,1594579918
Saskylakh,71.92,114.08,59.22,73,74,16.82,RU,1594579503
Faanui,-16.48,-151.75,79.0,75,100,15.77,PF,1594579626
Thinadhoo,0.53,72.93,84.79,71,97,7.78,MV,1594580215
Nikolskoye,59.7,30.79,62.6,63,75,1.59,RU,1594580216
Provideniya,64.38,-173.3,51.58,64,0,3.65,RU,1594580216
Tshane,-24.02,21.87,48.45,42,0,9.15,BW,1594580216
Ushuaia,-54.8,-68.3,35.6,80,40,24.16,AR,1594580166
Saint Anthony,45.02,-93.22,82.0,36,1,4.7,US,1594579399
Makkah al Mukarramah,21.43,39.83,84.18,33,91,3.78,SA,1594580013
Sobolevo,54.43,31.9,54.5,86,92,10.71,RU,1594579959
Bubaque,11.28,-15.83,78.6,86,100,16.28,GW,1594579649
Hilo,19.73,-155.09,77.0,73,90,5.12,US,1594579932
Rikitea,-23.12,-134.97,71.24,71,0,16.42,PF,1594579943
Fortuna,40.6,-124.16,71.01,68,20,16.11,US,1594579996
Lebu,-37.62,-73.65,50.16,90,100,3.98,CL,1594579918
Port Elizabeth,-33.92,25.57,60.8,59,0,14.99,ZA,1594579928
Uyuni,-20.46,-66.83,49.53,31,0,5.59,BO,1594580217
Kalaiya,27.03,85.0,82.87,80,100,8.14,NP,1594580217
Kavieng,-2.57,150.8,81.81,72,100,3.69,PG,1594580217
Oktyabr'skiy,54.48,53.47,64.27,85,0,3.71,RU,1594579645
Tasiilaq,65.61,-37.64,42.8,81,0,12.75,GL,1594580217
Albany,42.6,-73.97,89.01,41,6,3.0,US,1594579958
Xiuyan,40.29,123.27,65.5,84,79,1.36,CN,1594580218
Mataura,-46.19,168.86,39.0,83,88,3.0,NZ,1594580218
Sumbawanga,-7.97,31.62,60.12,45,0,5.23,TZ,1594580218
Hasaki,35.73,140.83,64.4,100,75,6.93,JP,1594579627
Sitka,57.05,-135.33,55.4,82,75,3.87,US,1594580218
Chokurdakh,70.63,147.92,56.88,61,85,9.46,RU,1594580218
Kaitangata,-46.28,169.85,37.0,75,6,5.01,NZ,1594580218
Vao,-22.67,167.48,71.24,81,4,19.3,NC,1594579626
Butaritari,3.07,172.79,83.21,79,22,16.08,KI,1594579965
Alofi,-19.06,-169.92,73.4,83,91,20.8,NU,1594580219
Vila Franca do Campo,37.72,-25.43,73.4,64,75,10.29,PT,1594580219
Busselton,-33.65,115.33,55.99,81,2,12.93,AU,1594579947
Half Moon Bay,37.46,-122.43,80.01,68,5,3.36,US,1594580219
Seafield,55.97,-3.15,64.4,55,100,14.99,GB,1594580219
Hualmay,-11.1,-77.61,66.2,65,6,8.14,PE,1594580219
São Filipe,14.9,-24.5,74.43,78,39,10.6,CV,1594579990
Aripuanã,-9.17,-60.63,95.38,32,31,2.64,BR,1594580029
Vila Velha,-20.33,-40.29,84.2,42,0,14.99,BR,1594580220
Castro,-24.79,-50.01,65.75,67,96,8.14,BR,1594580088
Arraial do Cabo,-22.97,-42.03,87.8,40,74,6.93,BR,1594579945
Richards Bay,-28.78,32.04,57.9,65,0,5.5,ZA,1594580220
Mt. Pleasant,32.79,-79.86,95.0,63,75,4.7,US,1594580220
Santiago del Estero,-27.8,-64.26,70.54,41,100,6.58,AR,1594580221
Tuatapere,-46.13,167.68,39.0,83,65,3.0,NZ,1594580221
Japura,-0.32,102.35,74.17,96,82,2.95,ID,1594579637
San Cristobal,7.77,-72.22,87.8,45,40,4.7,VE,1594579962
Yellowknife,62.46,-114.35,69.01,55,75,5.82,CA,1594580221
Pevek,69.7,170.31,48.87,76,94,4.65,RU,1594579626
Bambous Virieux,-20.34,57.76,72.0,73,40,16.11,MU,1594580045
Teya,60.38,92.63,61.81,72,100,5.08,RU,1594580043
Hobart,-42.88,147.33,41.0,93,90,8.05,AU,1594579954
New Norfolk,-42.78,147.06,37.0,91,0,2.3,AU,1594579928
Nome,64.5,-165.41,63.0,59,1,5.82,US,1594579645
San Quintín,30.48,-115.95,77.88,56,0,11.18,MX,1594580222
Bathsheba,13.22,-59.52,82.4,83,90,13.87,BB,1594579967
Grand-Santi,4.25,-54.38,80.38,92,100,3.29,GF,1594580222
Meulaboh,4.14,96.13,76.6,88,100,4.21,ID,1594579644
Qaanaaq,77.48,-69.36,46.54,60,99,3.2,GL,1594580222
Nabire,-3.37,135.48,76.15,85,100,3.94,ID,1594580223
Zaozyornoye,45.16,33.28,75.43,57,0,12.48,UA,1594580223
Narsaq,60.92,-46.05,62.6,51,100,4.7,GL,1594580223
Buala,-8.14,159.59,80.38,82,100,12.91,SB,1594580223
Kapaa,22.08,-159.32,80.6,69,40,16.11,US,1594580223
La Ronge,55.1,-105.28,77.0,44,90,12.75,CA,1594579656
Remanso,-9.62,-42.08,83.68,47,39,12.57,BR,1594580223
Cape Town,-33.93,18.42,59.0,44,0,23.04,ZA,1594580133
Storsteinnes,69.24,19.23,55.4,82,75,4.7,NO,1594580223
Coahuayana Viejo,18.73,-103.68,80.6,78,75,3.4,MX,1594580224
Helong,42.54,129.0,57.45,90,94,1.45,CN,1594580224
George Town,5.41,100.34,80.6,88,40,4.7,MY,1594580224
Tsiroanomandidy,-18.77,46.03,66.22,51,81,3.4,MG,1594580224
Riyadh,24.69,46.72,100.4,14,47,11.41,SA,1594580187
San Patricio,19.22,-104.7,89.6,75,40,11.41,MX,1594579523
Khani,41.96,42.96,77.0,83,40,3.36,GE,1594580026
Hobyo,5.35,48.53,79.56,76,22,23.31,SO,1594579655
Norman Wells,65.28,-126.83,57.2,87,75,5.82,CA,1594579964
Chui,-33.7,-53.46,54.7,63,14,9.04,UY,1594579633
Mount Gambier,-37.83,140.77,41.0,93,90,1.83,AU,1594579651
Bredasdorp,-34.53,20.04,53.6,62,0,5.82,ZA,1594579967
Lata,40.16,-8.33,88.0,38,0,5.99,PT,1594580162
Tuktoyaktuk,69.45,-133.04,55.4,58,40,5.82,CA,1594580225
Avarua,-21.21,-159.78,69.8,88,98,8.05,CK,1594580225
Nelson Bay,-32.72,152.15,48.0,100,75,4.7,AU,1594580023
Bud,39.45,-86.18,80.01,57,40,3.36,US,1594580225
Tokur,53.13,132.9,56.84,95,19,1.43,RU,1594580225
Umm Kaddadah,13.6,26.69,87.17,43,100,21.27,SD,1594579974
Tiksi,71.69,128.87,58.23,85,100,5.99,RU,1594579937
Barrow,71.29,-156.79,35.6,94,90,8.05,US,1594580101
Cedral,23.8,-100.73,82.11,26,0,7.36,MX,1594580226
Auki,-8.77,160.7,78.78,83,100,6.69,SB,1594579979
Tigil',57.8,158.67,55.13,88,100,2.62,RU,1594580226
Cidreira,-30.18,-50.21,60.31,93,100,10.33,BR,1594580226
Yangjiang,21.85,111.97,80.29,88,68,4.85,CN,1594580226
Omboué,-1.57,9.26,73.09,88,96,9.37,GA,1594579658
Pisco,-13.7,-76.22,66.99,77,45,10.29,PE,1594580005
Ilulissat,69.22,-51.1,48.2,70,8,4.7,GL,1594580227
Hithadhoo,-0.6,73.08,84.88,70,55,5.97,MV,1594580227
Saint-Philippe,-21.36,55.77,69.8,68,10,5.82,RE,1594580227
Ola,59.58,151.28,54.64,87,0,1.59,RU,1594580227
Saint Paul Harbor,57.79,-152.41,55.4,87,90,3.36,US,1594580043
Hirara,24.8,125.28,84.74,80,32,11.99,JP,1594579631
Ambilobe,-13.2,49.05,69.48,74,17,4.27,MG,1594580228
Geraldton,-28.77,114.6,53.6,46,0,14.99,AU,1594579928
Kiryat Gat,31.61,34.76,81.0,68,0,2.26,IL,1594579955
Zaragoza,41.66,-0.88,84.2,42,20,9.17,ES,1594580012
Klaksvík,62.23,-6.59,51.8,93,100,12.75,FO,1594580228
Henderson,36.04,-114.98,109.4,10,1,9.17,US,1594580115
Porto-Novo,6.5,2.6,76.21,85,89,9.55,BJ,1594580206
Mil'kovo,54.72,158.62,56.84,88,100,1.3,RU,1594580221
Palimbang,6.21,124.19,77.68,79,91,4.12,PH,1594580228
Rabaul,-4.2,152.17,79.84,73,27,5.12,PG,1594580229
Mana,5.66,-53.78,82.99,73,100,9.64,GF,1594580229
Anloga,5.79,0.9,78.8,78,20,11.41,GH,1594580229
Soyo,-6.13,12.37,72.36,78,26,10.22,AO,1594580229
Baykit,61.67,96.37,53.55,88,46,1.79,RU,1594580208
Klæbu,63.3,10.48,51.8,81,75,18.34,NO,1594580229
Saint George,37.1,-113.58,102.99,16,1,5.82,US,1594579950
Carnarvon,-24.87,113.63,57.2,93,33,5.82,AU,1594579980
Puerto Ayora,-0.74,-90.35,69.01,87,72,3.0,EC,1594579938
Zhezkazgan,47.8,67.71,82.35,43,0,9.57,KZ,1594580230
Balikpapan,-1.27,116.83,73.26,94,99,3.83,ID,1594580230
Altayskoye,51.95,85.33,57.42,85,0,4.59,RU,1594580230
Whitianga,-36.83,175.7,52.0,96,100,12.59,NZ,1594580230
Acarigua,9.55,-69.2,91.4,43,98,11.41,VE,1594580151
Airai,-8.93,125.41,56.14,100,64,4.21,TL,1594579653
Coquimbo,-29.95,-71.34,59.0,77,17,10.29,CL,1594579399
Watertown,42.37,-71.18,90.0,48,40,10.83,US,1594580062
Brae,60.4,-1.35,55.4,82,75,9.17,GB,1594580231
Buraidah,26.33,43.98,104.0,19,40,6.93,SA,1594580030
Ulaangom,49.98,92.07,65.55,67,100,5.73,MN,1594580231
Severo-Kuril'sk,50.68,156.12,49.8,91,100,9.22,RU,1594579941
Upernavik,72.79,-56.15,42.19,85,99,9.93,GL,1594579643
Sarakhs,36.54,61.16,80.33,18,46,4.74,IR,1594580232
Laurel,39.1,-76.85,91.0,61,75,4.7,US,1594580232
La Huacana,18.97,-101.82,75.2,60,75,11.41,MX,1594580232
Mayumba,-3.43,10.66,71.91,86,70,5.01,GA,1594579655
Hope,33.67,-93.59,96.01,44,100,4.0,US,1594580232
Fort Nelson,58.81,-122.7,66.2,52,75,11.41,CA,1594580022
Lima,-12.04,-77.03,62.6,77,90,5.82,PE,1594580233
Sinnamary,5.38,-52.95,81.09,83,9,10.58,GF,1594579648
Port Alfred,-33.59,26.89,57.99,47,0,16.67,ZA,1594580225
Jamestown,42.1,-79.24,77.0,64,20,13.87,US,1594579967
Kahului,20.89,-156.47,82.4,51,20,16.11,US,1594580180
Talnakh,69.49,88.4,53.6,93,40,8.95,RU,1594579949
Dengzhou,37.81,120.75,70.36,91,100,19.28,CN,1594580233
Makokou,0.57,12.86,71.17,94,100,2.55,GA,1594580233
Honiara,-9.43,159.95,75.2,94,40,5.82,SB,1594580233
Penzance,50.12,-5.54,62.6,67,0,8.05,GB,1594580234
Kieta,-6.22,155.63,78.28,82,100,5.77,PG,1594580234
Tabou,4.42,-7.35,76.08,77,58,8.16,CI,1594580234
Emerald,-23.53,148.17,51.8,62,96,8.05,AU,1594580234
Palafrugell,41.92,3.16,75.0,56,90,6.6,ES,1594580234
Rajshahi,24.37,88.6,79.45,91,76,6.69,BD,1594580234
Kenai,60.55,-151.26,53.6,100,90,12.75,US,1594579996
Saldanha,-33.01,17.94,55.4,76,0,13.87,ZA,1594580234
Lüderitz,-26.65,15.16,57.2,87,0,3.36,NA,1594579977
Bagotville,-28.98,153.42,57.0,100,100,3.36,AU,1594580235
Veliki Trnovac,42.48,21.74,62.01,72,1,5.01,RS,1594580235
Lopandino,52.47,34.82,65.21,82,0,1.45,RU,1594580235
Constitución,-35.33,-72.42,58.3,67,100,7.27,CL,1594579547
Mandera,3.94,41.87,84.9,49,13,13.62,KE,1594579640
Havøysund,71.0,24.66,55.4,87,40,14.99,NO,1594580235
Codrington,-38.27,141.97,43.86,92,1,2.71,AU,1594579661
Mersing,2.43,103.84,77.0,94,25,5.82,MY,1594580235
Mogadishu,2.04,45.34,77.56,85,82,16.6,SO,1594580162
Thompson,55.74,-97.86,69.8,60,75,11.41,CA,1594580234
Crixás,-14.55,-49.97,89.31,28,16,3.31,BR,1594580235
Corrente,-3.74,-43.34,89.53,42,5,3.49,BR,1594580236
Luanda,-8.84,13.23,71.6,83,40,6.93,AO,1594580236
Hofn,64.25,-15.21,52.5,93,100,7.43,IS,1594579646
Longyearbyen,78.22,15.64,48.2,70,75,3.36,SJ,1594579969
Westport,41.14,-73.36,88.0,51,40,14.99,US,1594580236
Rio Grande,-32.03,-52.1,55.4,76,75,11.41,BR,1594580236
Flinders,-34.58,150.86,50.0,90,100,1.99,AU,1594580080
Margate,51.38,1.39,64.99,50,100,3.0,GB,1594580237
Cabo San Lucas,22.89,-109.91,93.2,46,75,12.75,MX,1594580167
Loandjili,-4.76,11.86,73.4,88,20,5.82,CG,1594580237
Kuala Terengganu,5.33,103.14,77.0,88,40,9.17,MY,1594580041
Port Macquarie,-31.43,152.92,44.01,93,0,2.24,AU,1594580037
Souillac,-20.52,57.52,71.6,73,40,16.11,MU,1594580238
Stornoway,58.21,-6.39,55.4,82,100,18.34,GB,1594580238
Yulara,-25.24,130.99,41.0,81,0,5.82,AU,1594579995
Verkhoyansk,67.54,133.38,67.57,80,0,2.82,RU,1594580238
Nizhniy Tsasuchey,50.52,115.13,65.73,79,100,8.48,RU,1594580238
Kruisfontein,-34.0,24.73,52.09,41,0,5.99,ZA,1594579647
Raja,8.46,25.68,72.19,91,100,4.76,SS,1594580238
Caravelas,-17.71,-39.25,75.11,70,97,6.44,BR,1594580239
Stawell,-37.05,142.77,43.56,95,19,12.08,AU,1594580239
Mushie,-3.02,16.9,80.06,65,5,2.39,CD,1594580239
Bardsīr,29.92,56.57,82.4,20,40,13.87,IR,1594580102
Taitung City,22.76,121.14,80.74,73,100,2.62,TW,1594580239
Makakilo City,21.35,-158.09,80.6,61,1,5.82,US,1594580239
St Helens,53.45,-2.73,64.99,56,17,1.99,GB,1594580215
Cherskiy,68.75,161.3,49.8,93,100,2.51,RU,1594579977
Mitsamiouli,-11.38,43.28,77.0,78,20,4.7,KM,1594580239
Roebourne,-20.78,117.13,62.13,30,0,13.38,AU,1594580240
Alipur,29.38,70.91,95.41,41,1,3.89,PK,1594580240
Mpongwe,-13.51,28.16,69.49,43,3,10.13,ZM,1594580240
Mahibadhoo,3.78,72.97,83.95,67,83,3.11,MV,1594580240
Marawi,8.0,124.29,73.99,88,100,5.01,PH,1594580016
Ballina,-28.87,153.57,57.0,100,100,3.36,AU,1594580025
Nyurba,63.28,118.33,62.2,73,100,2.68,RU,1594580240
Harper,4.38,-7.72,76.06,77,62,8.1,LR,1594580240
Ibrā’,22.69,58.53,85.17,62,97,5.55,OM,1594580241
São João da Barra,-21.64,-41.05,84.2,42,100,4.7,BR,1594579645
Kiama,-34.68,150.87,50.0,89,100,3.65,AU,1594580241
Goderich,43.75,-81.72,69.01,91,100,5.01,CA,1594580173
Saint-Augustin,51.23,-58.65,61.05,96,100,17.4,CA,1594579538
Korla,41.76,86.15,78.01,63,6,4.0,CN,1594580241
Agadez,19.75,10.25,92.59,11,26,5.08,NE,1594580241
Muros,42.78,-9.06,82.99,47,20,9.17,ES,1594580241
Belinsky,52.96,43.42,65.84,79,0,7.14,RU,1594580242
Lorengau,-2.02,147.27,81.54,76,91,3.06,PG,1594580242
College,64.86,-147.8,63.0,67,75,2.33,US,1594580227
Husavik,66.04,-17.34,57.2,71,75,11.41,IS,1594580225
Salalah,17.02,54.09,82.4,88,75,3.36,OM,1594580242
Laela,-8.57,32.05,61.86,44,0,4.97,TZ,1594580242
Aranda de Duero,41.67,-3.69,72.34,51,99,3.09,ES,1594580242
Comodoro Rivadavia,-45.87,-67.5,48.2,36,20,12.75,AR,1594580058
Paita,-5.09,-81.11,68.22,71,6,14.76,PE,1594580243
Mandurah,-32.55,115.7,59.0,85,38,14.32,AU,1594579958
Cockburn Town,21.46,-71.14,87.8,62,40,17.22,TC,1594580202
Monte Patria,-30.69,-70.95,80.29,16,100,4.81,CL,1594580243
Kyaikkami,16.08,97.57,80.28,84,100,9.08,MM,1594580243
Matamoros,25.53,-103.25,93.0,29,5,10.29,MX,1594580041
Beringovskiy,63.05,179.32,49.71,85,100,8.32,RU,1594580230
Kampot,10.62,104.18,78.8,88,75,1.12,KH,1594580243
Isangel,-19.55,169.27,68.0,100,20,11.41,VU,1594579978
Yangi Marg`ilon,40.43,71.72,78.8,44,99,2.24,UZ,1594579983
Tuy Hoa,13.08,109.3,78.37,83,2,4.59,VN,1594580244
Haines Junction,60.75,-137.51,59.18,51,99,6.29,CA,1594580007
Te Anau,-45.42,167.72,32.76,94,6,1.86,NZ,1594579989
Machiques,10.06,-72.55,86.81,66,18,7.83,VE,1594580244
Sur,22.57,59.53,85.71,69,100,16.06,OM,1594580244
Luena,-11.78,19.92,62.29,34,0,5.08,AO,1594580243
Sørland,67.67,12.69,53.6,76,40,8.05,NO,1594580245
Torbay,47.67,-52.73,66.2,68,75,14.99,CA,1594579650
Aykhal,66.0,111.5,55.4,66,0,4.47,RU,1594579658
Kalmunai,7.42,81.82,83.03,79,100,4.54,LK,1594579950
Betioky,-23.72,44.38,63.3,91,33,5.55,MG,1594580245
Vokhma,58.93,46.76,59.52,79,35,3.91,RU,1594580245
Martapura,-3.42,114.85,72.82,96,100,1.05,ID,1594580246
Nieuwpoort,51.12,2.77,64.99,59,13,10.29,BE,1594580246
The Valley,18.22,-63.06,89.6,70,75,16.11,AI,1594579956
Borazjan,29.27,51.22,91.4,70,0,9.17,IR,1594580098
San Rafael,-34.62,-68.33,47.08,54,100,3.6,AR,1594580042
Pingliang,35.54,106.69,60.8,87,7,3.18,CN,1594580246
Farīdpur,23.6,89.83,82.4,83,75,4.7,BD,1594580246
Esperance,-33.87,121.9,48.2,66,0,18.34,AU,1594580244
Cambridge,43.36,-80.31,78.01,57,40,9.17,CA,1594580122
Southbridge,42.08,-72.03,84.0,59,48,10.18,US,1594579987
Safi,32.3,-9.24,75.81,69,0,17.27,MA,1594580247
Lüshunkou,38.8,121.27,71.6,94,40,4.47,CN,1594580247
Manaure,11.78,-72.44,87.8,70,75,17.22,CO,1594580247
Ribeira Grande,38.52,-28.7,73.4,78,20,14.99,PT,1594579966
Manisa Province,38.83,28.17,80.6,54,0,12.75,TR,1594580247
Yabrūd,33.97,36.66,66.99,46,0,1.99,SY,1594580004
Maba,24.68,113.6,77.43,86,75,3.09,CN,1594580248
Sorong,-0.88,131.25,75.69,87,0,8.46,ID,1594580228
Ahipara,-35.17,173.17,55.31,88,10,7.23,NZ,1594580248
Ilebo,-4.32,20.58,73.26,87,77,1.52,CD,1594580248
Port-Gentil,-0.72,8.78,77.0,88,90,15.39,GA,1594579961
Fomboni,-12.28,43.74,77.81,79,0,9.71,KM,1594580248
Genhe,50.78,121.52,59.4,62,100,1.32,CN,1594580248
East London,-33.02,27.91,60.55,57,0,21.72,ZA,1594579985
Waddān,29.16,16.14,84.49,37,0,20.27,LY,1594580249
Nanortalik,60.14,-45.24,47.64,89,100,12.88,GL,1594580224
Beeville,28.4,-97.75,96.01,59,40,3.36,US,1594580249
Itoman,26.12,127.67,84.2,83,20,6.93,JP,1594580249
Carutapera,-1.2,-46.02,81.45,78,27,7.58,BR,1594580249
Jalu,29.03,21.55,83.64,33,0,16.69,LY,1594579970
Saint-Leu,-21.15,55.28,69.8,68,48,5.82,RE,1594580249
Hong Kong,22.29,114.16,84.0,79,17,4.0,HK,1594579950
Samarai,-10.62,150.67,77.67,88,100,17.11,PG,1594579983
Atuona,-9.8,-139.03,80.44,74,0,23.67,PF,1594579975
Redmond,47.67,-122.12,63.0,86,99,1.01,US,1594580216
Mahébourg,-20.41,57.7,71.6,73,40,16.11,MU,1594579955
Cabedelo,-6.98,-34.83,82.4,65,75,12.75,BR,1594580250
Kununurra,-15.77,128.73,68.0,28,100,5.82,AU,1594580250
Kaitong,44.81,123.15,72.93,58,100,6.13,CN,1594579990
Calvinia,-31.47,19.78,49.66,47,0,14.41,ZA,1594580250
Twin Falls,42.56,-114.46,82.4,19,1,13.87,US,1594580218
Santa Cruz de Barahona,18.21,-71.1,91.4,55,75,18.34,DO,1594580251
Horodkivka,49.91,28.98,53.1,90,100,15.79,UA,1594580251
Pombas,17.15,-25.02,82.4,58,75,17.22,CV,1594580251
Saint-Pierre,-21.34,55.48,68.0,68,20,5.82,RE,1594579652
Nhulunbuy,-12.23,136.77,75.2,60,17,16.11,AU,1594580251
Columbia,34.0,-81.03,96.01,41,20,9.17,US,1594580229
Mount Isa,-20.73,139.5,48.2,60,0,8.05,AU,1594580251
Morón,-34.65,-58.62,59.0,40,85,11.41,AR,1594580252
Guangming,45.33,122.78,72.55,59,100,5.44,CN,1594580252
Kenora,49.82,-94.43,75.2,53,75,4.7,CA,1594580252
Gariadhar,21.53,71.58,83.37,75,100,13.04,IN,1594580252
Cordele,31.96,-83.78,93.99,43,1,6.93,US,1594580252
Ostrovnoy,68.05,39.51,49.06,90,100,9.46,RU,1594580252
Suntar,62.14,117.63,62.98,93,100,2.8,RU,1594580052
Myskhako,44.67,37.74,75.2,57,20,2.24,RU,1594580252
Media Luna,20.14,-77.44,88.36,55,96,3.2,CU,1594580253
Kloulklubed,7.04,134.26,84.2,69,42,5.1,PW,1594579980
Sept-Îles,50.2,-66.38,72.0,88,90,3.36,CA,1594580253
‘Āhuimanu,21.44,-157.84,80.6,65,20,9.17,US,1594580253
Muncar,-8.43,114.33,74.52,89,33,2.71,ID,1594580253
Kavaratti,10.57,72.64,82.47,78,81,14.7,IN,1594580253
Conceição do Araguaia,-8.26,-49.26,92.28,32,76,3.58,BR,1594580253
Zaraza,9.35,-65.32,84.7,76,3,4.25,VE,1594580253
Karratha,-20.74,116.85,62.02,30,0,13.51,AU,1594580254
Vostochnyy,55.82,37.87,69.8,87,40,8.95,RU,1594580254
Clyde River,70.47,-68.59,46.4,87,20,12.75,CA,1594579980
Aklavik,68.22,-135.01,51.8,81,75,7.83,CA,1594580254
Maki,37.75,138.88,64.0,100,97,1.12,JP,1594580254
Stromness,58.97,-3.3,55.4,82,20,12.75,GB,1594580254
Iqaluit,63.75,-68.51,62.6,55,75,13.87,CA,1594579969
Skibbereen,51.55,-9.27,59.0,82,75,13.87,IE,1594580254
Bengkulu,-3.8,102.27,75.25,90,29,3.65,ID,1594580218
Yellāpur,14.97,74.72,72.05,96,100,3.0,IN,1594580255
Gewanē,10.17,40.65,91.18,30,92,11.54,ET,1594580255
Tura,25.52,90.22,74.93,97,71,6.13,IN,1594579659
Ponta Delgada,37.73,-25.67,73.4,64,75,10.29,PT,1594580255
Tomatlán,19.93,-105.25,82.51,75,100,2.28,MX,1594580255
Mehamn,71.04,27.85,48.2,87,40,14.99,NO,1594579975
Bar Harbor,44.39,-68.2,73.99,83,20,13.87,US,1594580256
Dingzhou,38.51,115.0,68.0,100,4,1.79,CN,1594580256
Vakhrushevo,55.23,61.72,71.6,46,0,4.47,RU,1594580256
Vestmanna,62.16,-7.17,51.8,93,100,12.75,FO,1594580071
Shingū,33.73,135.98,71.76,74,100,5.21,JP,1594579656
Khatanga,71.97,102.5,53.74,85,100,12.24,RU,1594580256
Port Blair,11.67,92.75,81.81,80,100,9.8,IN,1594580252
Nouakchott,18.09,-15.98,86.0,70,40,18.34,MR,1594580257
Elmadağ,39.92,33.23,80.6,53,40,8.05,TR,1594580257
Kuah,6.33,99.84,78.8,94,20,3.36,MY,1594580257
Shitanjing,39.23,106.34,67.21,64,0,5.32,CN,1594580257
Shimoda,34.67,138.95,63.0,95,100,1.01,JP,1594580257
Bodden Town,19.28,-81.25,78.8,94,20,4.12,KY,1594580257
Sovetsk,55.08,21.88,52.14,91,0,5.73,RU,1594580257
Lagoa,39.05,-27.98,68.65,77,0,16.28,PT,1594580037
Oni,42.58,43.44,63.34,71,88,3.13,GE,1594580258
Vardø,70.37,31.11,46.4,93,75,9.17,NO,1594580258
Namatanai,-3.67,152.43,79.56,79,100,7.45,PG,1594580258
Portland,45.52,-122.68,71.01,68,90,5.82,US,1594580236
Ponta do Sol,32.67,-17.1,75.2,73,20,14.99,PT,1594580090
Grimshaw,56.18,-117.6,64.4,59,75,13.87,CA,1594580258
Odienné,9.51,-7.57,74.28,90,7,2.95,CI,1594580258
San Policarpo,12.18,125.51,79.38,84,100,5.08,PH,1594580013
Bilma,18.69,12.92,92.23,26,0,5.37,NE,1594580014
Ocampo,21.65,-101.5,73.72,38,2,11.63,MX,1594580259
Oodweyne,9.41,45.06,78.71,42,23,17.54,SO,1594580078
Palapye,-22.55,27.13,47.07,49,0,6.91,BW,1594580259
Takoradze,4.88,-1.76,74.89,86,61,8.61,GH,1594580259
Haysville,37.56,-97.35,91.99,35,1,9.17,US,1594580259
Jining,35.41,116.58,68.65,91,100,5.99,CN,1594580259
Kathmandu,27.72,85.32,71.6,94,75,3.36,NP,1594580111
Norsup,-16.07,167.38,78.8,83,20,8.05,VU,1594580260
Port Hardy,50.7,-127.42,59.0,72,75,3.36,CA,1594579996
Touros,-5.2,-35.46,82.4,61,20,13.87,BR,1594580040
Gander,48.97,-54.59,68.0,72,75,24.16,CA,1594580205
Wana,32.3,69.57,77.99,53,0,3.24,PK,1594580260
Grand Gaube,-20.01,57.66,72.0,70,0,5.99,MU,1594580212
Dingle,11.0,122.67,77.09,89,97,2.19,PH,1594579978
Crestview,30.76,-86.57,95.0,38,1,8.05,US,1594580260
Bossangoa,6.49,17.46,73.06,88,79,1.99,CF,1594580260
Sibolga,1.74,98.78,75.43,81,100,3.06,ID,1594580260
Gubkinskiy,64.43,76.5,59.32,58,97,11.01,RU,1594580261
Inyonga,-6.72,32.07,68.86,27,0,5.46,TZ,1594580261
Lompoc,34.64,-120.46,73.4,60,0,9.17,US,1594579974
Verkhneural'sk,53.88,59.21,73.4,60,40,4.47,RU,1594580261
Severo-Yeniseyskiy,60.37,93.04,59.34,73,100,5.57,RU,1594580261
Otane,-39.88,176.63,50.0,92,100,5.99,NZ,1594580261
Petatlán,17.52,-101.27,89.6,62,75,9.17,MX,1594580012
Abhā,18.22,42.51,78.8,22,1,5.82,SA,1594580001
Waitati,-45.75,170.57,42.01,67,0,15.01,NZ,1594580262
Nambucca Heads,-30.65,153.0,51.01,100,0,5.82,AU,1594580262
Oban,56.41,-5.47,61.0,89,100,1.99,GB,1594580262
Arcoverde,-8.42,-37.05,77.81,51,71,11.25,BR,1594580262
Necochea,-38.55,-58.74,46.0,62,0,10.0,AR,1594580262
Norden,53.6,7.2,62.01,63,100,5.82,DE,1594580263
Karatau,43.17,70.47,74.39,26,0,14.27,KZ,1594580263
Waingapu,-9.66,120.26,74.25,81,89,7.27,ID,1594580263
Fukuechō,32.69,128.84,77.99,93,100,14.34,JP,1594580263
Los Llanos de Aridane,28.66,-17.92,75.2,69,20,12.75,ES,1594580021
Bismarck,46.81,-100.78,82.4,48,1,12.75,US,1594580029
Prince Rupert,54.32,-130.32,55.4,87,90,4.7,CA,1594580127
Taltal,-25.4,-70.48,63.03,60,23,4.76,CL,1594580263
Atar,20.52,-13.05,97.16,30,97,5.37,MR,1594580263
Eyl,7.98,49.82,82.69,65,16,26.26,SO,1594580263
Suoyarvi,62.08,32.35,53.94,85,89,3.47,RU,1594580264
Mācherla,16.48,79.43,84.78,70,100,4.9,IN,1594580171
Norrköping,58.59,16.18,64.4,48,54,12.75,SE,1594580264
Grajaú,-5.82,-46.14,94.28,28,100,5.01,BR,1594580264
Araguaína,-7.19,-48.21,94.62,26,69,4.34,BR,1594580264
Bétaré Oya,5.6,14.08,67.89,95,83,1.81,CM,1594580264
Muzhi,65.37,64.67,56.07,95,15,7.4,RU,1594580264
Maragogi,-9.01,-35.22,77.7,75,4,9.15,BR,1594579982
Charagua,-19.8,-63.22,83.41,39,0,7.34,BO,1594580264
Batagay-Alyta,67.8,130.41,63.27,79,50,3.89,RU,1594580265
Eydhafushi,5.1,73.07,83.75,67,96,1.21,MV,1594580265
High Level,58.52,-117.14,59.0,87,75,6.93,CA,1594580265
Ancud,-41.87,-73.82,50.0,70,75,6.93,CL,1594580017
Pelym,61.01,62.0,70.56,64,74,9.08,RU,1594580265
Iskateley,67.68,53.15,46.56,91,100,18.99,RU,1594580027
Bariloche,-41.15,-71.31,37.4,47,20,16.11,AR,1594580265
Turukhansk,65.82,87.98,56.25,75,100,6.98,RU,1594580265
Paamiut,61.99,-49.67,44.89,79,99,6.93,GL,1594580034
Zhigansk,66.77,123.37,59.25,65,22,4.21,RU,1594580265
Antofagasta,-23.65,-70.4,60.8,63,20,11.41,CL,1594580265
Camacha,33.08,-16.33,71.6,68,20,16.11,PT,1594580266
Lithakia,37.72,20.83,82.4,65,0,1.81,GR,1594580266
Gura Caliţei,45.58,27.02,69.8,64,75,20.8,RO,1594580266
Aksarka,66.56,67.8,53.85,95,100,9.08,RU,1594580236
Esmeraldas,-19.76,-44.31,78.8,88,20,4.7,BR,1594580266
Luxor,25.7,32.64,95.0,26,0,9.17,EG,1594580266
Vershino-Darasunskiy,52.35,115.52,57.92,98,100,3.29,RU,1594580266
Vestmannaeyjar,63.44,-20.27,50.0,93,90,5.82,IS,1594580018
Ixtapa,20.7,-105.2,88.0,74,75,6.93,MX,1594579976
Nizhniy Kuranakh,58.84,125.49,68.2,61,0,1.81,RU,1594580007
Bocana de Paiwas,12.79,-85.12,80.15,82,99,11.9,NI,1594580267
Kulhudhuffushi,6.62,73.07,83.71,69,51,3.51,MV,1594580164
Kedrovyy,56.17,91.82,53.6,93,0,2.64,RU,1594580267
Kautokeino,69.01,23.04,55.18,72,100,9.55,NO,1594580267
Oulu,65.01,25.47,60.8,72,100,3.36,FI,1594580267
Drabiv,49.96,32.15,64.98,93,3,15.39,UA,1594580267
Bandarbeyla,9.49,50.81,83.8,61,57,33.04,SO,1594580267
Castro Alves,-12.77,-39.43,77.88,62,54,8.39,BR,1594580268
Mayo,38.89,-76.51,91.4,51,1,10.29,US,1594580152
Bambanglipuro,-7.95,110.28,73.53,87,100,4.97,ID,1594580268
Bethel,41.37,-73.41,86.0,54,40,9.17,US,1594580237
Yantal',56.85,105.25,55.71,78,7,2.82,RU,1594580268
Terrace,54.52,-128.6,57.2,71,75,11.41,CA,1594580245
Atasū,48.68,71.64,71.31,62,0,8.32,KZ,1594580269
Acapulco de Juárez,16.86,-99.89,87.8,66,75,5.82,MX,1594580173
Itarema,-2.92,-39.92,80.76,74,40,14.09,BR,1594580269
Hervey Bay,-25.3,152.85,61.0,90,39,5.99,AU,1594580250
Vanavara,60.34,102.28,53.8,83,0,4.05,RU,1594580251
Bonthe,7.53,-12.51,77.4,82,100,9.31,SL,1594580206
Dauphin,51.15,-100.05,77.0,53,1,4.7,CA,1594580270
Samsun Province,41.25,36.33,77.0,73,40,12.75,TR,1594580270
City of San Pedro,14.35,121.02,82.99,89,100,2.35,PH,1594580137
Farafangana,-22.82,47.83,69.33,83,0,11.16,MG,1594580270
Yumen,40.28,97.2,74.34,24,100,4.63,CN,1594579971
Atherton,53.52,-2.49,64.99,53,4,4.0,GB,1594580270
Karpathos,35.51,27.21,75.2,83,1,29.97,GR,1594580270
Teluknaga,-6.1,106.64,82.0,83,40,4.7,ID,1594580270
Santa Cruz de la Sierra,-17.8,-63.17,82.4,65,40,23.04,BO,1594580116
Shenjiamen,29.96,122.3,77.83,92,100,22.84,CN,1594580271
Hell,63.45,10.9,51.8,81,75,18.34,NO,1594580271
Port Lincoln,-34.73,135.87,52.43,83,1,4.14,AU,1594580023
Concepción,-36.83,-73.05,53.6,100,90,11.41,CL,1594580187
Maniitsoq,65.42,-52.9,47.43,73,100,15.97,GL,1594580055
Pemberton,50.32,-122.8,57.2,76,75,4.12,CA,1594580271
Bredy,52.42,60.34,71.02,77,0,7.74,RU,1594580271
Shirokiy,49.76,129.52,64.45,92,0,4.05,RU,1594580271
Kawalu,-7.38,108.21,71.6,92,100,1.59,ID,1594580272
Mildura,-34.2,142.15,44.6,93,0,8.05,AU,1594580272
Genoa,44.41,8.96,84.2,35,20,10.29,IT,1594580272
Harrisonville,38.65,-94.35,89.6,33,1,11.41,US,1594580272
Narok,-1.08,35.86,60.12,78,90,2.15,KE,1594580272
La Asuncion,11.03,-63.86,98.6,42,0,14.99,VE,1594580272
Tartagal,-22.52,-63.8,77.79,43,0,4.85,AR,1594580067
Delta del Tigre,-34.76,-56.39,50.0,53,72,11.41,UY,1594580273
Alice Springs,-23.7,133.88,35.6,69,0,5.86,AU,1594580093
Pedra,-8.5,-36.94,77.41,54,68,10.42,BR,1594580273
Amarillo,35.22,-101.83,96.01,48,1,12.75,US,1594580005
Krasnovishersk,60.41,57.08,66.45,88,1,6.08,RU,1594580273
Nouadhibou,20.93,-17.03,78.8,65,0,6.93,MR,1594579986
Tarsus,36.92,34.88,82.4,94,20,5.82,TR,1594580273
Sechura,-5.56,-80.82,74.12,58,14,13.56,PE,1594580273
Maiduguri,11.85,13.16,81.7,63,8,5.1,NG,1594580274
Sangmélima,2.93,11.98,68.68,98,41,3.2,CM,1594580274
Svetlaya,46.54,138.33,55.99,88,100,1.72,RU,1594580077
Cordun,46.95,26.87,55.99,81,100,4.0,RO,1594580274
Pochutla,15.74,-96.47,89.6,62,90,8.05,MX,1594580274
Kaeo,-35.1,173.78,52.0,3,5,4.0,NZ,1594580270
Kirksville,40.19,-92.58,84.2,51,40,11.41,US,1594580175
Smidovich,48.6,133.82,62.28,93,0,1.52,RU,1594580274
Gijón,43.54,-5.66,71.01,76,1,7.0,ES,1594580017
Sisimiut,66.94,-53.67,52.3,55,89,18.1,GL,1594580254
Chicama,-7.84,-79.15,72.19,58,22,10.11,PE,1594580023
La Santisima Trinidad,-14.83,-64.9,86.0,62,40,10.29,BO,1594580275
Pacific Grove,36.62,-121.92,79.0,72,1,8.05,US,1594580275
Umm Hājar,13.3,19.7,90.57,43,40,5.88,TD,1594580275
Moyale,3.52,39.06,73.11,55,74,9.13,KE,1594580275
Adolfo López Mateos,28.47,-107.3,84.99,25,0,7.0,MX,1594580275
Pekan,3.48,103.4,77.0,94,20,5.57,MY,1594580275
Amzya,56.24,54.39,63.0,79,0,0.76,RU,1594580276
San Angelo,31.46,-100.44,100.99,37,1,6.93,US,1594580276
Preston,53.77,-2.72,64.99,63,20,8.05,GB,1594580216
Bilibino,68.05,166.44,57.79,87,97,3.51,RU,1594580276
Kaka,37.35,59.61,87.55,18,10,11.63,TM,1594580276
Manyana,-23.4,21.72,46.51,45,0,7.49,BW,1594580276
Dhankutā,26.98,87.33,69.89,93,81,1.68,NP,1594580276
Hayvoron,48.34,29.87,61.52,90,97,18.03,UA,1594580276
Laas,46.62,10.7,64.4,52,5,0.87,IT,1594580277
Asău,46.43,26.4,54.0,92,100,4.88,RO,1594579983
Bukama,-9.2,25.85,78.39,29,0,5.75,CD,1594580277
Salinas,36.68,-121.66,79.0,47,1,8.05,US,1594580277
Wewak,-3.55,143.63,78.67,81,100,0.67,PG,1594579986
Bolama,11.58,-15.47,78.8,88,75,5.82,GW,1594580277
Fairlie,55.76,-4.86,62.01,77,100,3.0,GB,1594580277
Christchurch,-43.53,172.63,39.2,100,11,4.7,NZ,1594580278
Dakar,14.69,-17.44,82.4,78,40,11.41,SN,1594580278
Mehrān,33.12,46.16,84.2,23,0,9.17,IR,1594580278
San Marco in Lamis,41.71,15.64,75.2,57,75,18.34,IT,1594580278
Kirakira,-10.45,161.92,78.75,84,41,13.24,SB,1594580278
Piripiri,-4.27,-41.78,90.88,39,56,4.07,BR,1594580278
Mercedes,-34.65,-59.43,59.0,30,85,7.0,AR,1594580278
Inuvik,68.35,-133.72,59.0,54,75,5.82,CA,1594580279
Henties Bay,-22.12,14.28,55.0,92,0,5.01,NA,1594580260
Mossamedes,-15.2,12.15,63.7,81,0,8.81,AO,1594580004
Leningradskiy,69.38,178.42,41.5,74,0,8.84,RU,1594580279
Les Cayes,18.2,-73.75,87.82,57,7,9.62,HT,1594580279
Alugan,12.22,125.48,78.8,86,98,4.7,PH,1594580279
Alyangula,-13.85,136.42,71.6,60,82,4.7,AU,1594580016
Imeni Poliny Osipenko,52.42,136.49,54.99,94,94,5.03,RU,1594580280
Ust-Maya,60.42,134.53,60.15,81,0,2.37,RU,1594580280
Icod de los Vinos,28.37,-16.71,77.0,87,10,5.01,ES,1594580280
Anjiang,27.32,110.1,75.13,87,100,2.35,CN,1594580280
Tongchuanshi,35.08,109.09,65.66,85,0,2.84,CN,1594580281
Gaza,31.5,34.47,81.0,68,0,2.46,PS,1594580281
Aurangabad,19.88,75.33,77.0,78,75,4.7,IN,1594580281
Panguna,-6.32,155.48,68.43,100,100,0.6,PG,1594580281
Avera,33.19,-82.53,91.4,43,40,8.05,US,1594580265
Talcahuano,-36.72,-73.12,53.6,100,90,11.41,CL,1594580281
Bikin,46.82,134.26,61.07,94,0,1.03,RU,1594580281
Faya,18.39,42.45,78.8,22,5,5.82,SA,1594580281
Teruel,40.67,-0.67,73.4,73,79,4.7,ES,1594580282
Lavrentiya,65.58,-171.0,44.96,76,3,4.29,RU,1594580282
Maku,39.29,44.45,70.02,57,14,2.35,IR,1594580282
Tamale,9.4,-0.84,81.46,68,67,4.32,GH,1594580282
Poronaysk,49.22,143.12,52.12,94,45,4.14,RU,1594580282
Zhangaözen,43.3,52.8,82.02,36,0,2.84,KZ,1594580282
West Bay,19.37,-81.42,78.8,94,20,3.71,KY,1594580283
Nova Odessa,-22.78,-47.3,86.0,36,0,11.41,BR,1594580283
San Luis,-33.3,-66.34,58.95,41,87,4.18,AR,1594579988
Maceió,-9.67,-35.74,80.6,65,40,14.99,BR,1594580200
Coyhaique,-45.58,-72.07,42.8,52,40,2.24,CL,1594580248
Bundaberg,-24.85,152.35,61.0,93,90,5.82,AU,1594580283
Nova Olímpia,-14.8,-57.29,95.74,25,15,6.31,BR,1594580283
Liverpool,53.41,-2.98,66.0,55,23,5.82,GB,1594580057
Longido,-2.73,36.68,65.8,63,0,12.73,TZ,1594580284
Barão de Melgaço,-16.19,-55.97,95.0,26,20,11.41,BR,1594580284
Tilichiki,60.47,166.1,48.72,99,100,5.41,RU,1594580284
Patrocínio,-18.94,-46.99,80.01,39,100,4.7,BR,1594580284
Ulundi,-28.34,31.42,49.39,85,0,2.91,ZA,1594580284
Whitehorse,60.72,-135.05,57.99,76,75,5.82,CA,1594580015
Maningrida,-12.07,134.27,67.28,60,100,11.5,AU,1594580285
Egvekinot,66.32,-179.17,55.04,50,16,2.95,RU,1594580285
Luganville,-15.53,167.17,78.8,83,20,8.05,VU,1594580285
Ust-Tsilma,65.44,52.15,58.44,81,85,11.34,RU,1594580285
