City,Lat,Lon,Max Temp,Humidity,Cloudiness,Wind Speed,Country,Date
Isangel,-19.55,169.27,68.0,100,20,11.41,VU,1594579333
Nikolskoye,59.7,30.79,62.6,67,75,2.24,RU,1594579288
Ahipara,-35.17,173.17,55.31,88,10,7.23,NZ,1594579334
Hong Kong,22.29,114.16,84.0,79,17,4.0,HK,1594579415
Ostrovnoy,68.05,39.51,49.06,90,100,9.46,RU,1594579427
Chokurdakh,70.63,147.92,56.88,61,85,9.46,RU,1594579289
Klaksvík,62.23,-6.59,51.8,93,100,12.75,FO,1594579335
Busselton,-33.65,115.33,55.0,81,2,12.93,AU,1594579338
Jamestown,42.1,-79.24,77.0,64,20,13.87,US,1594579586
Atuona,-9.8,-139.03,80.44,74,0,23.67,PF,1594579514
Lata,40.16,-8.33,88.0,38,0,5.99,PT,1594579586
Atar,20.52,-13.05,97.16,30,97,5.37,MR,1594579537
Padang,-0.95,100.35,77.65,80,75,5.32,ID,1594579334
Beringovskiy,63.05,179.32,49.71,85,100,8.32,RU,1594579586
Ushuaia,-54.8,-68.3,35.6,80,40,24.16,AR,1594579315
Bredasdorp,-34.53,20.04,53.6,62,0,5.82,ZA,1594579302
Albany,42.6,-73.97,88.0,41,6,1.99,US,1594579587
Port Hardy,50.7,-127.42,59.0,72,75,3.36,CA,1594579587
Punta Arenas,-53.15,-70.92,39.2,79,40,17.22,CL,1594579440
Phang Nga,8.45,98.53,77.0,94,20,1.12,TH,1594579587
Bethel,41.37,-73.41,86.0,54,40,9.17,US,1594579587
Avarua,-21.21,-159.78,69.8,88,98,8.05,CK,1594579587
Ziro,27.63,93.83,59.11,100,94,0.51,IN,1594579587
Rikitea,-23.12,-134.97,71.24,71,0,16.42,PF,1594579588
Owo,7.2,5.59,72.91,98,100,5.73,NG,1594579588
Norman Wells,65.28,-126.83,57.2,87,75,5.82,CA,1594579514
Genteng,-8.37,114.15,71.71,93,44,0.67,ID,1594579588
Arona,28.1,-16.68,78.8,65,0,19.46,ES,1594579588
Kindu,-2.95,25.95,76.78,71,72,2.44,CD,1594579588
Tuatapere,-46.13,167.68,39.0,83,65,3.0,NZ,1594579588
Vaini,-21.2,-175.2,69.8,88,75,13.87,TO,1594579411
Marsh Harbour,26.54,-77.06,83.41,73,100,13.27,BS,1594579589
Mahmudābād,27.3,81.12,84.2,89,75,2.24,IN,1594579589
Ripoll,42.2,2.19,69.01,87,78,1.01,ES,1594579589
Dikson,73.51,80.55,41.97,97,98,5.86,RU,1594579589
Adrar,20.5,-10.07,99.86,24,62,10.42,MR,1594579293
Pryazha,61.69,33.62,60.8,72,100,4.47,RU,1594579589
Vardø,70.37,31.11,46.4,93,75,9.17,NO,1594579589
Yumen,40.28,97.2,74.34,24,100,4.63,CN,1594579393
Saint George,37.1,-113.58,100.4,16,1,5.82,US,1594579338
Kapaa,22.08,-159.32,80.6,69,40,16.11,US,1594579590
Talnakh,69.49,88.4,53.6,93,40,8.95,RU,1594579590
Guerrero Negro,27.98,-114.06,84.67,32,0,16.73,MX,1594579520
Innisfail,-17.53,146.03,68.23,89,100,5.17,AU,1594579590
Mar del Plata,-38.0,-57.56,50.0,39,20,19.46,AR,1594579460
Tasiilaq,65.61,-37.64,42.8,81,0,12.75,GL,1594579590
Baruun-Urt,46.68,113.28,64.94,73,100,12.06,MN,1594579590
Aklavik,68.22,-135.01,51.8,81,75,7.83,CA,1594579326
Hilo,19.73,-155.09,77.0,73,90,5.12,US,1594579591
Bluff,-46.6,168.33,39.0,83,72,3.0,NZ,1594579591
Kryvyi Rih,47.92,33.35,73.4,43,0,6.71,UA,1594579591
Morgan City,29.7,-91.21,95.0,70,20,11.41,US,1594579591
Mataura,-46.19,168.86,39.0,83,88,3.0,NZ,1594579591
Schorndorf,48.81,9.53,71.6,37,0,6.93,DE,1594579408
Severo-Kuril'sk,50.68,156.12,49.8,91,100,9.22,RU,1594579591
Ribeira Grande,38.52,-28.7,73.4,78,20,14.99,PT,1594579592
Cayenne,4.93,-52.33,86.0,70,27,11.41,GF,1594579300
Maraã,-1.83,-65.37,82.06,87,97,0.58,BR,1594579592
Kerema,-7.96,145.78,76.42,89,96,7.87,PG,1594579592
Clive,41.6,-93.72,82.99,51,20,9.17,US,1594579592
Buraidah,26.33,43.98,104.0,19,40,6.93,SA,1594579592
Cabo San Lucas,22.89,-109.91,93.2,46,75,12.75,MX,1594579481
Aasiaat,68.71,-52.87,41.85,78,0,7.92,GL,1594579593
Puerto Ayora,-0.74,-90.35,69.01,87,72,3.0,EC,1594579593
Carnarvon,-24.87,113.63,57.2,93,33,5.82,AU,1594579593
Zvečka,44.64,20.16,68.0,60,15,8.05,RS,1594579593
Lüderitz,-26.65,15.16,57.2,87,0,3.36,NA,1594579593
Arroio Grande,-32.24,-53.09,55.99,80,83,6.42,BR,1594579593
Mananjary,-21.22,48.33,67.21,88,0,5.5,MG,1594579593
Souillac,-20.52,57.52,71.6,73,40,16.11,MU,1594579321
Ilulissat,69.22,-51.1,48.2,70,8,4.7,GL,1594579512
Cape Town,-33.93,18.42,59.0,44,0,23.04,ZA,1594579594
Katherine,-14.47,132.27,68.0,28,100,9.17,AU,1594579524
Arraial do Cabo,-22.97,-42.03,87.8,40,74,6.93,BR,1594579594
Serenje,-13.23,30.24,64.33,48,69,7.74,ZM,1594579594
Porto-Novo,6.5,2.6,76.21,85,89,9.55,BJ,1594579540
Vila Franca do Campo,37.72,-25.43,73.4,64,75,10.29,PT,1594579543
Alto Araguaia,-17.31,-53.22,86.94,29,96,5.95,BR,1594579595
Bambous Virieux,-20.34,57.76,71.6,73,40,16.11,MU,1594579595
Bennington,42.88,-73.2,82.4,58,75,8.05,US,1594579595
Verkhniy Mamon,50.16,40.38,68.45,87,100,2.59,RU,1594579595
Butte,39.65,-121.57,93.0,29,1,4.7,US,1594579595
Seymchan,62.88,152.43,66.02,60,100,1.61,RU,1594579595
Orlik,52.52,99.83,50.92,81,2,0.74,RU,1594579545
Villa Carlos Paz,-31.42,-64.5,60.01,32,66,6.93,AR,1594579595
Longyearbyen,78.22,15.64,48.2,70,75,3.36,SJ,1594579596
Srednekolymsk,67.45,153.68,62.89,59,0,3.47,RU,1594579596
Yellowknife,62.46,-114.35,69.01,55,75,5.82,CA,1594579596
Lompoc,34.64,-120.46,73.4,60,0,9.17,US,1594579596
Muros,42.78,-9.06,87.01,47,20,12.75,ES,1594579596
Khovd,48.01,91.64,60.6,69,43,2.71,MN,1594579555
Krasnoborsk,61.56,45.93,58.55,74,98,4.38,RU,1594579596
Castro,-24.79,-50.01,65.75,67,96,8.14,BR,1594579597
New Norfolk,-42.78,147.06,37.0,91,0,2.3,AU,1594579597
Madarounfa,13.31,7.16,84.2,74,100,4.7,NE,1594579597
Vila do Maio,15.13,-23.22,80.6,69,75,12.75,CV,1594579597
Hobart,-42.88,147.33,41.0,93,90,8.05,AU,1594579479
Pangnirtung,66.15,-65.71,50.0,76,75,11.41,CA,1594579597
Oranjestad,12.52,-70.03,80.6,88,40,12.75,AW,1594579597
San Cristobal,7.77,-72.22,87.8,45,40,4.7,VE,1594579338
Vanavara,60.34,102.28,53.8,83,0,4.05,RU,1594579597
Tuktoyaktuk,69.45,-133.04,55.4,58,40,5.82,CA,1594579598
Kaitangata,-46.28,169.85,37.0,75,6,4.0,NZ,1594579512
Marystown,47.17,-55.15,59.18,93,100,16.26,CA,1594579598
Chabahar,25.29,60.64,84.34,82,26,10.49,IR,1594579598
Sisimiut,66.94,-53.67,52.3,55,89,18.1,GL,1594579598
Qaanaaq,77.48,-69.36,46.54,60,99,3.2,GL,1594579598
Mugur-Aksy,50.35,90.5,51.53,81,100,4.03,RU,1594579598
Boende,-0.22,20.87,75.36,84,86,2.19,CD,1594579598
Aksu,41.12,80.26,77.85,29,89,8.32,CN,1594579598
Mookane,-23.69,26.66,49.37,43,0,8.1,BW,1594579599
Slave Lake,55.28,-114.77,60.8,63,75,24.16,CA,1594579599
Gizo Government Station,-8.1,156.84,82.47,79,42,15.12,SB,1594579599
Katsuura,35.13,140.3,68.0,94,75,12.75,JP,1594579338
Ternate,0.8,127.4,80.2,78,100,3.33,ID,1594579599
Kostino,58.91,53.27,64.69,88,8,5.88,RU,1594579599
Ambon City,-3.7,128.18,78.62,86,56,12.33,ID,1594579599
Roald,62.58,6.13,53.6,62,40,6.93,NO,1594579406
Port Keats,-14.25,129.55,70.05,31,100,12.95,AU,1594579599
Fairbanks,64.84,-147.72,63.0,67,75,4.7,US,1594579599
Maracaçumé,-2.04,-45.96,86.99,56,76,4.41,BR,1594579600
Dhārchula,29.85,80.53,70.47,72,100,0.96,IN,1594579600
Borşa,47.66,24.66,50.0,87,100,1.01,RO,1594579600
Launceston,-41.45,147.17,39.0,93,0,9.17,AU,1594579362
Butaritari,3.07,172.79,83.21,79,22,16.08,KI,1594579506
Saint-Philippe,-21.36,55.77,69.8,60,10,8.05,RE,1594579329
Coyhaique,-45.58,-72.07,42.8,52,40,2.24,CL,1594579601
Mahébourg,-20.41,57.7,71.6,73,40,16.11,MU,1594579601
Kavieng,-2.57,150.8,81.81,72,100,3.69,PG,1594579601
East London,-33.02,27.91,60.55,57,0,21.72,ZA,1594579332
May Pen,17.96,-77.25,89.6,66,20,23.04,JM,1594579601
Leningradskiy,69.38,178.42,41.5,74,0,8.84,RU,1594579601
Port Alfred,-33.59,26.89,57.99,47,0,16.67,ZA,1594579601
Rio Grande,-32.03,-52.1,55.4,76,75,11.41,BR,1594579386
Yerbogachën,61.28,108.01,54.91,84,0,3.18,RU,1594579602
Amarante do Maranhão,-5.57,-46.74,92.07,30,100,3.09,BR,1594579602
Kilindoni,-7.91,39.67,77.52,77,0,15.82,TZ,1594579602
Mossamedes,-15.2,12.15,63.7,81,0,8.81,AO,1594579602
Gijang,35.24,129.21,68.0,88,90,13.87,KR,1594579602
Pirgos,35.12,25.72,80.01,43,0,17.0,GR,1594579602
Port Elizabeth,-33.92,25.57,60.8,59,0,14.99,ZA,1594579602
Lerwick,60.15,-1.15,55.4,82,75,9.17,GB,1594579433
Puerto Escondido,15.85,-97.07,87.8,66,90,6.93,MX,1594579603
Linxia Chengguanzhen,35.6,103.21,58.15,74,14,3.71,CN,1594579603
Grindavik,63.84,-22.43,51.8,87,90,6.93,IS,1594579603
Kitgum,3.28,32.89,66.51,85,26,1.81,UG,1594579603
George Town,5.41,100.34,80.6,88,40,4.7,MY,1594579603
Polistena,38.41,16.08,80.6,78,20,5.82,IT,1594579603
Ponta do Sol,32.67,-17.1,75.2,73,20,14.99,PT,1594579604
Jalu,29.03,21.55,83.64,33,0,16.69,LY,1594579604
Sola,-13.88,167.55,80.26,81,7,28.81,VU,1594579604
Lebu,-37.62,-73.65,50.16,90,100,3.98,CL,1594579604
Daru,-9.08,143.21,76.87,89,99,16.04,PG,1594579604
Kerman,30.28,57.08,82.4,20,40,13.87,IR,1594579458
Morondava,-20.28,44.28,72.82,78,0,11.88,MG,1594579604
Soyo,-6.13,12.37,72.36,78,26,10.22,AO,1594579604
Fare,-16.7,-151.02,79.66,74,100,17.52,PF,1594579561
Kenora,49.82,-94.43,75.2,53,75,4.7,CA,1594579326
Hermanus,-34.42,19.23,55.99,56,0,14.0,ZA,1594579605
Tual,-5.67,132.75,78.94,80,25,22.48,ID,1594579605
Dandong,40.13,124.39,67.5,79,100,2.39,CN,1594579605
Bathsheba,13.22,-59.52,82.4,83,90,13.87,BB,1594579605
Iznoski,54.99,35.31,58.35,98,100,7.63,RU,1594579605
Bagamoyo,-6.43,38.9,72.73,85,0,9.01,TZ,1594579605
Zhanakorgan,43.91,67.25,79.09,18,0,9.28,KZ,1594579605
Matamoros,25.53,-103.25,93.0,29,5,10.29,MX,1594579606
Grand Gaube,-20.01,57.66,71.01,70,0,7.0,MU,1594579520
Alyangula,-13.85,136.42,71.6,60,82,4.7,AU,1594579606
Nelson Bay,-32.72,152.15,48.0,100,75,4.7,AU,1594579445
Ballina,-28.87,153.57,57.0,100,100,3.36,AU,1594579415
Alcanena,39.46,-8.67,84.99,63,0,9.78,PT,1594579606
Kodinsk,58.69,99.18,53.98,83,1,1.72,RU,1594579606
Udachny,66.42,112.4,55.4,66,0,4.47,RU,1594579421
Acapulco de Juárez,16.86,-99.89,87.8,66,75,5.82,MX,1594579420
Fortuna,40.6,-124.16,71.01,68,20,16.11,US,1594579607
Quatre Cocos,-20.21,57.76,71.6,73,40,16.11,MU,1594579607
Qujing,25.48,103.78,63.66,95,100,2.15,CN,1594579607
Paamiut,61.99,-49.67,44.89,79,99,6.93,GL,1594579456
Tiksi,71.69,128.87,58.23,85,100,5.99,RU,1594579502
San Quintín,30.48,-115.95,77.88,56,0,11.18,MX,1594579564
Provideniya,64.38,-173.3,51.58,64,0,3.65,RU,1594579608
Chupa,66.27,33.05,54.59,76,6,4.45,RU,1594579608
San José del Guaviare,2.57,-72.65,81.43,86,61,3.4,CO,1594579608
Gmina Opole Lubelskie,51.15,21.97,62.01,63,0,4.7,PL,1594579608
Karpinsk,59.77,60.01,64.18,76,0,6.33,RU,1594579608
Micheweni,-4.97,39.83,76.28,81,1,15.28,TZ,1594579459
Tazovsky,67.47,78.7,50.13,71,85,3.27,RU,1594579609
Mahajanga,-15.72,46.32,78.8,47,20,8.05,MG,1594579609
Manjacaze,-24.71,33.88,57.15,76,0,4.23,MZ,1594579316
Kodino,63.72,39.64,53.51,87,55,0.85,RU,1594579609
Bouna,9.27,-3.0,74.97,88,14,4.41,CI,1594579609
Geraldton,-28.77,114.6,53.6,46,0,14.99,AU,1594579609
Laas,46.62,10.7,64.4,52,5,0.87,IT,1594579609
Finschhafen,-6.6,147.87,78.49,76,100,8.9,PG,1594579609
Tabou,4.42,-7.35,76.08,77,58,8.16,CI,1594579610
Narsaq,60.92,-46.05,62.6,51,100,4.7,GL,1594579356
Vani,42.08,42.52,77.0,83,40,3.36,GE,1594579610
Krasnosel'kup,65.7,82.47,50.81,81,23,3.98,RU,1594579610
Zakopane,49.3,19.95,54.0,62,75,6.93,PL,1594579610
Dighwāra,25.73,85.0,78.8,94,75,4.7,IN,1594579610
Te Anau,-45.42,167.72,32.76,94,6,1.86,NZ,1594579610
Bengkulu,-3.8,102.27,75.25,90,29,3.65,ID,1594579312
Sovetskiy,61.36,63.58,70.95,61,21,10.6,RU,1594579423
Takhtamygda,54.1,123.57,66.78,68,99,2.13,RU,1594579611
Løding,67.3,14.75,57.99,71,40,9.17,NO,1594579611
Pisco,-13.7,-76.22,66.99,77,45,10.29,PE,1594579611
Lavrentiya,65.58,-171.0,44.96,76,3,4.29,RU,1594579611
Alofi,-19.06,-169.92,73.4,83,91,20.8,NU,1594579313
Yulara,-25.24,130.99,41.0,81,0,5.82,AU,1594579612
Los Llanos de Aridane,28.66,-17.92,75.2,73,20,13.87,ES,1594579612
Orsha,54.52,30.41,52.3,95,100,8.34,BY,1594579612
Perama,37.98,23.58,86.0,33,0,8.05,GR,1594579612
Thompson,55.74,-97.86,69.8,60,75,11.41,CA,1594579612
Sabzawār,36.21,57.68,80.46,21,95,17.43,IR,1594579612
Levice,48.22,18.61,69.01,35,0,5.03,SK,1594579612
Iguape,-24.71,-47.56,82.98,50,0,7.23,BR,1594579612
Ancud,-41.87,-73.82,50.0,70,75,6.93,CL,1594579613
Labuhan,-6.88,112.21,76.53,85,98,7.56,ID,1594579613
Bjørnevatn,69.67,29.98,48.2,81,75,11.41,NO,1594579613
Salalah,17.02,54.09,82.4,88,75,3.36,OM,1594579613
Pareora,-44.49,171.21,39.99,94,97,4.27,NZ,1594579613
Angra dos Reis,-23.01,-44.32,87.8,38,100,9.17,BR,1594579613
Ciudad del Carmen,18.63,-91.83,87.8,66,20,13.87,MX,1594579551
São Filipe,14.9,-24.5,74.43,78,39,10.6,CV,1594579613
Cidreira,-30.18,-50.21,60.31,93,100,10.33,BR,1594579346
Ambilobe,-13.2,49.05,69.48,74,17,4.27,MG,1594579614
Okhotsk,59.38,143.3,60.91,70,13,2.06,RU,1594579614
Ayagoz,47.97,80.44,65.26,51,76,3.29,KZ,1594579614
Xingcheng,40.62,120.72,71.02,77,100,3.4,CN,1594579614
Sahuaripa,29.05,-109.23,100.87,33,0,3.56,MX,1594579614
Hithadhoo,-0.6,73.08,84.88,70,55,5.97,MV,1594579614
Nouadhibou,20.93,-17.03,78.8,65,0,6.93,MR,1594579429
Kamenolomni,47.67,40.21,80.6,44,40,8.95,RU,1594579614
Popondetta,-8.75,148.25,72.81,94,100,3.0,PG,1594579320
Bereda,43.27,-7.54,69.01,78,0,15.99,ES,1594579442
Umirim,-3.68,-39.35,81.0,73,89,18.01,BR,1594579615
Westport,41.14,-73.36,87.01,54,40,13.87,US,1594579337
Nelson,-41.28,173.28,45.0,92,95,1.99,NZ,1594579615
Khatanga,71.97,102.5,53.74,85,100,12.24,RU,1594579615
Sayyan,15.17,44.32,70.09,54,16,5.14,YE,1594579615
Vila Velha,-20.33,-40.29,84.2,42,0,14.99,BR,1594579421
Lorengau,-2.02,147.27,81.54,76,91,3.06,PG,1594579538
Arrondissement de Cambrai,50.17,3.42,73.0,42,93,8.88,FR,1594579615
Esim,4.87,-2.24,74.75,87,39,6.89,GH,1594579494
Balikpapan,-1.27,116.83,73.26,94,99,3.83,ID,1594579616
Marsá Maţrūḩ,31.35,27.25,76.12,84,0,14.79,EG,1594579616
Cherskiy,68.75,161.3,49.8,93,100,2.51,RU,1594579616
Sambava,-14.27,50.17,71.38,84,55,11.23,MG,1594579616
General Roca,-39.03,-67.58,48.2,45,100,5.82,AR,1594579616
Flinders,-34.58,150.86,51.01,90,100,1.01,AU,1594579616
Murmashi,68.82,32.81,48.2,93,90,4.47,RU,1594579616
Sitka,57.05,-135.33,55.4,82,75,3.87,US,1594579617
Beyneu,45.32,55.2,87.64,20,0,12.44,KZ,1594579617
Viedma,-40.81,-63.0,47.32,50,0,22.48,AR,1594579617
Mahon,39.89,4.27,80.6,36,100,5.82,ES,1594579617
Gonaïves,19.45,-72.68,87.8,58,40,13.87,HT,1594579617
Port-Cartier,50.03,-66.87,72.0,88,90,3.36,CA,1594579617
Mackay,-21.15,149.2,62.6,88,100,6.93,AU,1594579617
Río Gallegos,-51.62,-69.22,33.8,59,0,17.22,AR,1594579617
Ulladulla,-35.35,150.47,48.99,100,90,10.29,AU,1594579617
Saint Paul Harbor,57.79,-152.41,55.4,87,90,3.36,US,1594579618
Nardaran,40.56,50.01,80.6,61,0,6.93,AZ,1594579620
Malaut,30.22,74.48,88.75,54,100,6.33,IN,1594579620
Saskylakh,71.92,114.08,59.22,73,74,16.82,RU,1594579503
Kamennomostskiy,44.3,40.19,68.58,74,79,4.94,RU,1594579620
Caravelas,-17.71,-39.25,75.11,70,97,6.44,BR,1594579616
São João Batista,-27.28,-48.85,75.0,78,90,1.99,BR,1594579621
Tocopilla,-22.09,-70.2,65.34,49,12,3.2,CL,1594579621
Koslan,63.46,48.9,56.05,71,75,12.64,RU,1594579621
Phalaborwa,-23.94,31.14,53.56,55,0,2.59,ZA,1594579621
Barrow,71.29,-156.79,35.6,94,90,8.05,US,1594579621
Huarmey,-10.07,-78.15,68.18,65,6,10.83,PE,1594579621
Kirakira,-10.45,161.92,78.75,84,41,13.24,SB,1594579621
Canto do Buriti,-8.11,-42.94,89.17,37,51,9.06,BR,1594579621
Millington,35.34,-89.9,87.01,74,75,5.82,US,1594579622
Dunedin,-45.87,170.5,42.01,66,0,15.01,NZ,1594579622
Morant Bay,17.88,-76.41,89.6,66,20,23.04,JM,1594579622
Port Blair,11.67,92.75,81.81,80,100,9.8,IN,1594579622
Hastings,50.86,0.57,66.99,50,98,1.99,GB,1594579622
Blagodatnoye,45.4,42.59,80.6,36,100,4.47,RU,1594579622
Hambantota,6.12,81.12,80.6,94,75,9.17,LK,1594579622
Skibbereen,51.55,-9.27,59.0,82,75,13.87,IE,1594579622
Pangai,-19.8,-174.35,75.2,73,75,19.46,TO,1594579517
Tianpeng,30.99,103.94,77.0,65,97,2.24,CN,1594579623
Kumul,42.8,93.45,77.56,35,27,8.72,CN,1594579623
Esperance,-33.87,121.9,48.2,66,0,18.34,AU,1594579623
Jinchang,38.5,102.17,70.27,49,0,4.68,CN,1594579623
Mount Isa,-20.73,139.5,50.0,60,0,8.05,AU,1594579379
Jiuquan,39.74,98.52,73.6,28,100,2.39,CN,1594579623
Barra de Tecoanapa,16.52,-98.75,87.55,60,100,9.28,MX,1594579623
Lichinga,-13.31,35.24,59.22,64,46,5.82,MZ,1594579518
Kabin Buri,13.95,101.72,78.75,90,100,0.87,TH,1594579623
Drayton Valley,53.22,-114.99,59.47,75,100,12.66,CA,1594579624
La Sarre,48.8,-79.2,57.79,77,100,8.25,CA,1594579624
Beloha,-25.17,45.05,67.15,75,55,9.71,MG,1594579383
Naze,28.37,129.48,80.6,94,100,4.7,JP,1594579624
Avera,33.19,-82.53,91.4,43,40,6.93,US,1594579624
Honningsvåg,70.98,25.97,48.2,87,40,14.99,NO,1594579624
Mantamádos,39.31,26.33,80.6,61,0,11.41,GR,1594579625
Maniitsoq,65.42,-52.9,47.43,73,100,15.97,GL,1594579625
Yar-Sale,66.83,70.83,54.09,91,100,7.25,RU,1594579404
Voh,-20.97,164.7,63.97,87,0,5.08,NC,1594579625
Cuauhtémoc,28.42,-106.87,84.99,25,0,7.0,MX,1594579626
Sabaudia,41.3,13.03,79.0,82,0,1.01,IT,1594579626
Vao,-22.67,167.48,71.24,81,4,19.3,NC,1594579626
Faanui,-16.48,-151.75,79.0,75,100,15.77,PF,1594579626
Neiafu,-18.65,-173.98,75.2,83,75,13.87,TO,1594579626
Pevek,69.7,170.31,48.87,76,94,4.65,RU,1594579626
Doka,13.52,35.77,78.39,73,100,17.47,SD,1594579626
Zatoka,46.07,30.47,80.6,47,20,17.9,UA,1594579626
Alice Springs,-23.7,133.88,35.6,69,0,5.86,AU,1594579626
Verkhoyansk,67.54,133.38,67.57,80,0,2.82,RU,1594579627
Laguna,38.42,-121.42,91.99,20,5,3.36,US,1594579334
Tambacounda,13.75,-13.76,84.2,74,40,6.93,SN,1594579627
Sompeta,18.93,84.6,84.33,78,100,6.89,IN,1594579627
Husavik,66.04,-17.34,57.2,71,75,11.41,IS,1594579551
Bandarbeyla,9.49,50.81,83.8,61,57,33.04,SO,1594579627
Hasaki,35.73,140.83,64.4,100,75,6.93,JP,1594579627
Pauini,-7.71,-66.98,90.46,52,95,1.05,BR,1594579628
Morong,14.51,121.24,82.99,89,100,3.13,PH,1594579628
Comodoro Rivadavia,-45.87,-67.5,48.2,36,20,12.75,AR,1594579581
Tessalit,20.2,1.01,97.36,21,31,19.93,ML,1594579628
Kenai,60.55,-151.26,53.6,100,90,12.75,US,1594579442
Vraneštica,41.45,21.03,69.8,83,20,5.44,MK,1594579628
Ji’an,27.12,114.98,79.16,81,100,4.56,CN,1594579628
Lubartów,51.46,22.61,62.01,63,0,4.7,PL,1594579628
Waddān,29.16,16.14,84.49,37,0,20.27,LY,1594579628
Katangli,51.71,143.23,46.83,97,61,1.83,RU,1594579570
Krasnoarmeysk,51.02,45.7,67.87,85,100,7.67,RU,1594579629
Cockburn Town,21.46,-71.14,87.8,62,40,17.22,TC,1594579629
Atocha,-20.93,-66.23,48.99,35,0,5.1,BO,1594579629
Lyuban',52.8,28.0,52.68,94,100,4.94,BY,1594579629
Tilichiki,60.47,166.1,48.72,99,100,5.41,RU,1594579565
Nizwá,22.93,57.53,88.47,49,36,6.29,OM,1594579629
Iqaluit,63.75,-68.51,59.0,58,75,4.7,CA,1594579630
Lokosovo,61.13,74.82,53.94,88,0,6.44,RU,1594579420
Port Lincoln,-34.73,135.87,52.43,83,1,4.14,AU,1594579368
Palmer,42.16,-72.33,86.0,51,75,13.87,US,1594579630
Grande Prairie,55.17,-118.8,60.8,48,75,24.16,CA,1594579522
Nanortalik,60.14,-45.24,47.64,89,100,12.88,GL,1594579630
Carutapera,-1.2,-46.02,81.45,78,27,7.58,BR,1594579630
Samarai,-10.62,150.67,77.67,88,100,17.11,PG,1594579630
Caaporã,-7.52,-34.91,82.4,65,75,12.75,BR,1594579630
Mimoso do Sul,-21.06,-41.37,80.62,48,82,3.94,BR,1594579631
Rocha,-34.48,-54.33,50.95,56,77,10.33,UY,1594579631
Sauda,59.65,6.35,57.0,81,97,4.92,NO,1594579631
Touros,-5.2,-35.46,82.4,61,20,13.87,BR,1594579452
Oddur,4.12,43.89,75.15,74,28,16.64,SO,1594579631
Monzón,41.91,0.19,80.6,61,100,6.93,ES,1594579631
Road Town,18.42,-64.62,87.8,74,40,11.41,VG,1594579543
Penzance,50.12,-5.54,62.6,67,0,8.05,GB,1594579631
Hirara,24.8,125.28,84.74,80,32,11.99,JP,1594579631
Portland,45.52,-122.68,70.0,68,90,5.82,US,1594578928
Saldanha,-33.01,17.94,55.4,76,0,13.87,ZA,1594579632
Ust'-Kan,50.93,84.76,49.98,85,5,2.08,RU,1594579632
Broome,42.25,-75.83,84.0,54,40,8.05,US,1594579506
Antofagasta,-23.65,-70.4,60.8,63,20,11.41,CL,1594579629
Carlyle,38.61,-89.37,82.99,71,0,12.28,US,1594579632
Cravo Norte,6.3,-70.2,77.52,88,100,11.54,CO,1594579632
Genhe,50.78,121.52,59.4,62,100,1.32,CN,1594579632
Chui,-33.7,-53.46,54.7,63,14,9.04,UY,1594579633
Reitz,-27.8,28.43,40.57,58,0,6.33,ZA,1594579633
Kushiro,42.98,144.37,53.46,92,28,4.43,JP,1594579633
Manicoré,-5.81,-61.3,91.98,49,26,1.19,BR,1594579636
Clyde River,70.47,-68.59,46.4,87,20,12.75,CA,1594579636
Plast,54.37,60.81,66.47,78,0,6.13,RU,1594579637
Kunshan,31.38,120.95,90.0,79,100,4.47,CN,1594579637
Oradea,47.07,21.93,62.6,63,0,10.29,RO,1594579637
Japura,-0.32,102.35,74.17,96,82,2.95,ID,1594579637
Farafangana,-22.82,47.83,69.33,83,0,11.16,MG,1594579637
Bo Phloi,14.32,99.52,79.11,79,100,4.32,TH,1594579637
Malbork,54.04,19.03,60.01,67,0,4.0,PL,1594579637
Yangi Marg`ilon,40.43,71.72,78.8,44,99,2.24,UZ,1594579637
Mount Darwin,-16.77,31.58,60.89,38,0,9.31,ZW,1594579638
Jega,12.22,4.38,88.66,53,100,11.7,NG,1594579638
Rawson,-43.3,-65.1,46.15,52,0,26.55,AR,1594579638
Vic,41.93,2.25,72.0,69,11,1.99,ES,1594579638
Iralaya,15.0,-83.23,89.6,75,75,9.17,HN,1594579638
Falkenberg,56.91,12.49,59.0,77,75,16.11,SE,1594579638
Atbasar,51.8,68.33,65.12,73,0,8.61,KZ,1594579639
Romitan,39.93,64.38,87.8,31,0,6.93,UZ,1594579639
Santiago de Cao,-7.96,-79.24,65.12,77,72,11.74,PE,1594579639
Fayaoué,-20.65,166.53,73.83,84,38,19.6,NC,1594579639
Marzuq,14.4,46.47,87.26,38,14,6.35,YE,1594579639
Miloslavskoye,53.58,39.44,65.05,72,0,4.07,RU,1594579639
Cap Malheureux,-19.98,57.61,71.01,70,0,7.0,MU,1594579639
Berlevåg,70.86,29.09,46.4,81,75,6.93,NO,1594579640
Ozerne,50.18,28.73,52.02,94,100,14.34,UA,1594579640
Evensk,61.95,159.23,57.43,90,93,0.74,RU,1594579548
Mandera,3.94,41.87,84.9,49,13,13.62,KE,1594579640
La Rioja,-29.41,-66.85,67.32,38,0,4.81,AR,1594579568
Caborca,30.58,-111.1,99.41,23,0,3.36,MX,1594579640
Natal,-5.79,-35.21,82.4,61,20,13.87,BR,1594579460
Majene,-3.54,118.97,75.31,93,100,8.88,ID,1594579640
Namatanai,-3.67,152.43,79.56,79,100,7.45,PG,1594579641
São José da Coroa Grande,-8.9,-35.15,78.26,73,7,9.73,BR,1594579641
Broken Hill,-31.95,141.43,42.8,93,9,12.75,AU,1594579641
Sur,22.57,59.53,85.71,69,100,16.06,OM,1594579610
Poum,-20.23,164.02,71.15,77,0,12.33,NC,1594579641
Tromsø,69.65,18.96,53.6,81,75,3.36,NO,1594579641
Novoagansk,61.94,76.66,54.84,87,0,6.6,RU,1594579641
Rudnichnyy,59.62,52.47,64.27,96,100,5.12,RU,1594579440
Waipawa,-41.41,175.52,53.01,82,100,1.99,NZ,1594579641
Burnie,-41.07,145.92,45.0,81,0,5.01,AU,1594579642
Coquimbo,-29.95,-71.34,59.0,77,17,10.29,CL,1594579399
Shihezi,44.3,86.03,69.04,47,96,6.42,CN,1594579642
Gao,16.64,1.64,102.25,19,68,2.66,ML,1594579642
Nador,35.17,-2.93,77.0,83,75,3.36,MA,1594579601
Torrevieja,37.98,-0.68,78.01,75,98,5.99,ES,1594579642
Bose,45.46,8.01,73.99,64,0,1.01,IT,1594579642
Pitogo,13.78,122.09,78.46,87,100,3.2,PH,1594579643
Redmond,47.67,-122.12,62.01,88,99,6.91,US,1594579404
Elko,41.0,-115.5,87.8,9,1,13.87,US,1594579643
Camocim,-2.9,-40.84,86.97,54,7,9.44,BR,1594579397
Upernavik,72.79,-56.15,42.19,85,99,9.93,GL,1594579643
Aksarka,66.56,67.8,53.85,95,100,9.08,RU,1594579644
Meulaboh,4.14,96.13,76.6,88,100,4.21,ID,1594579644
Luau,-10.71,22.22,68.99,30,0,4.56,AO,1594579644
Bariloche,-41.15,-71.31,37.4,47,20,16.11,AR,1594579608
Baiquan,47.58,126.08,66.54,77,0,2.93,CN,1594579644
Yermakovskoye,53.28,92.4,55.11,89,0,1.07,RU,1594579644
Zhigansk,66.77,123.37,59.25,65,22,4.21,RU,1594579541
Mehamn,71.04,27.85,48.2,87,40,14.99,NO,1594579645
Kavaratti,10.57,72.64,82.47,78,81,14.7,IN,1594579521
Nome,64.5,-165.41,63.0,59,1,5.82,US,1594579645
Oktyabr'skiy,54.48,53.47,64.27,85,0,3.71,RU,1594579645
Datia,25.67,78.47,87.87,64,2,15.23,IN,1594579645
São João da Barra,-21.64,-41.05,84.2,42,100,4.7,BR,1594579645
Cruzeiro do Sul,-29.51,-51.99,59.0,98,100,6.29,BR,1594579645
Tezu,27.92,96.17,75.54,85,98,1.92,IN,1594579646
Hofn,64.25,-15.21,52.5,93,100,7.43,IS,1594579646
Palembang,-2.92,104.75,74.59,93,100,3.27,ID,1594579369
San Carlos,9.66,-68.58,80.31,87,83,3.71,VE,1594579646
Koungou,-12.73,45.2,77.0,73,0,6.93,YT,1594579646
Vilyuysk,63.76,121.62,60.33,67,36,1.1,RU,1594579646
Dakoro,14.51,6.76,85.32,53,96,15.43,NE,1594579646
Eureka,40.8,-124.16,70.0,11,1,3.0,US,1594579608
Victor Harbor,-35.57,138.62,50.0,89,0,3.38,AU,1594579647
Pacific Grove,36.62,-121.92,79.0,72,1,8.05,US,1594579637
Dingle,11.0,122.67,77.09,89,97,2.19,PH,1594579647
Lang Suan,9.95,99.08,77.81,87,100,4.18,TH,1594579647
Olafsvik,64.89,-23.71,51.89,77,50,8.03,IS,1594579369
Partyzany,46.33,34.75,75.79,42,0,7.07,UA,1594579647
Toyooka,35.53,134.83,65.91,86,100,1.59,JP,1594579521
Juneau,58.3,-134.42,55.99,87,90,10.29,US,1594579434
Kruisfontein,-34.0,24.73,52.09,41,0,5.99,ZA,1594579647
Linhares,-19.39,-40.07,80.31,50,0,6.67,BR,1594579647
Hemnesberget,66.23,13.63,52.0,76,40,8.05,NO,1594579648
Sinnamary,5.38,-52.95,81.09,83,9,10.58,GF,1594579648
Bad Mergentheim,49.49,9.77,66.2,39,20,5.82,DE,1594579648
Kununurra,-15.77,128.73,68.0,28,100,5.82,AU,1594579648
Ayan,56.45,138.17,52.12,89,0,3.71,RU,1594579648
Jistebnice,49.49,14.53,62.01,72,2,5.48,CZ,1594579648
Nishihara,26.18,127.76,84.2,88,40,9.17,JP,1594579648
Constitución,-35.33,-72.42,58.3,67,100,7.27,CL,1594579547
Arrondissement de Bourg-en-Bresse,46.17,5.17,78.01,45,0,5.01,FR,1594579481
Walvis Bay,-22.96,14.51,55.0,87,0,3.36,NA,1594579424
Cumberland,35.05,-78.87,91.99,38,40,5.82,US,1594579649
Bubaque,11.28,-15.83,78.6,86,100,16.28,GW,1594579649
Sesori,13.72,-88.37,93.2,46,0,2.24,SV,1594579649
Dunmore Town,25.5,-76.65,84.04,76,100,15.86,BS,1594579649
Onguday,50.75,86.15,53.62,81,100,1.99,RU,1594579649
Bam,29.11,58.36,85.12,16,0,8.14,IR,1594579649
Macenta,8.54,-9.47,70.9,96,1,1.86,GN,1594579650
Sept-Îles,50.2,-66.38,72.0,88,90,3.36,CA,1594579624
Skjold,55.8,9.94,61.0,72,20,12.75,DK,1594579650
Wanaka,-44.7,169.15,35.01,85,56,1.99,NZ,1594579350
Venustiano Carranza,19.43,-99.1,75.2,38,40,5.82,MX,1594579650
Torbay,47.67,-52.73,66.2,68,75,14.99,CA,1594579650
Saint-Augustin,51.23,-58.65,61.05,96,100,17.4,CA,1594579538
Arrondissement de Limoges,45.75,1.33,75.2,33,0,12.75,FR,1594579650
Chimbote,-9.09,-78.58,66.24,71,6,10.76,PE,1594579650
Senneterre,48.38,-77.23,64.4,82,90,9.17,CA,1594579651
Valdivia,-39.81,-73.25,50.0,81,90,4.7,CL,1594579651
Yunyang,33.45,112.71,67.5,86,100,1.86,CN,1594579651
Tainan City,22.99,120.21,82.0,83,40,3.15,TW,1594579418
Mount Gambier,-37.83,140.77,41.0,93,90,1.83,AU,1594579651
Yam,55.48,37.75,75.0,73,0,8.95,RU,1594579651
Zheleznodorozhnyy,55.75,38.0,75.0,77,0,4.47,RU,1594579565
Ayorou,14.73,0.92,100.35,29,0,3.13,NE,1594579651
Bogovarovo,58.98,47.02,59.77,78,57,3.42,RU,1594579651
Saint Anthony,45.02,-93.22,82.0,36,1,4.7,US,1594579399
Saint-Pierre,-21.34,55.48,68.0,68,20,5.82,RE,1594579652
Kayerkan,69.35,87.76,53.6,93,40,8.95,RU,1594579652
Cairns,-16.92,145.77,71.6,83,90,8.05,AU,1594579364
Tete,-16.16,33.59,75.2,29,20,6.93,MZ,1594579652
High Rock,26.62,-78.28,87.8,79,75,14.99,BS,1594579652
Cariamanga,-4.33,-79.55,67.71,72,43,5.37,EC,1594579652
Puerto Madryn,-42.77,-65.04,45.79,53,0,26.98,AR,1594579545
Araouane,18.9,-3.53,102.63,18,0,5.3,ML,1594579652
Riverton,40.52,-111.94,93.0,21,1,10.29,US,1594579652
Airai,-8.93,125.41,56.14,100,64,4.21,TL,1594579653
Senanga,-16.12,23.27,60.42,31,0,6.35,ZM,1594579653
NEDJO,9.5,35.5,57.88,100,100,6.35,ET,1594579653
Diok’nisi,41.63,42.39,77.0,83,40,3.36,GE,1594579653
Winneba,5.35,-0.62,78.8,78,20,12.75,GH,1594579653
Metlika,45.65,15.31,69.8,46,0,5.82,SI,1594579653
Dalnerechensk,45.93,133.72,60.33,96,21,7.0,RU,1594579653
Yaan,7.38,8.57,75.4,93,97,4.05,NG,1594579654
Ibipeba,-11.64,-42.01,85.1,30,11,8.55,BR,1594579429
Sulina,45.16,29.65,75.0,66,29,15.77,RO,1594579654
Oranjemund,-28.55,16.43,55.89,70,11,11.39,NA,1594579531
Colares,38.8,-9.45,82.99,54,0,12.75,PT,1594579654
Parfen'yevo,58.48,43.41,58.96,78,94,4.23,RU,1594579654
Fairmont,39.49,-80.14,78.01,69,99,4.27,US,1594579654
Karachi,24.91,67.08,87.8,74,75,16.11,PK,1594579562
Benguela,-12.58,13.41,71.29,77,100,3.76,AO,1594579654
Nyandoma,61.67,40.2,54.99,79,54,2.86,RU,1594579655
Mayumba,-3.43,10.66,71.91,86,70,5.01,GA,1594579655
Hobyo,5.35,48.53,79.56,76,22,23.31,SO,1594579655
Inírida,3.87,-67.92,83.64,64,74,3.06,CO,1594579655
Melbourne,28.08,-80.61,95.0,75,75,12.75,US,1594579585
San Patricio,19.22,-104.7,89.6,75,40,11.41,MX,1594579523
Ust-Nera,64.57,143.2,65.97,44,100,7.36,RU,1594579655
Tela,15.78,-87.45,89.6,75,93,9.17,HN,1594579655
Ugoofaaru,5.67,73.0,83.75,68,73,1.32,MV,1594579656
La Ronge,55.1,-105.28,77.0,44,90,12.75,CA,1594579656
Sabha,27.04,14.43,87.73,13,1,4.63,LY,1594579656
Ngunguru,-35.62,174.5,52.0,3,9,4.0,NZ,1594579656
Shingū,33.73,135.98,71.76,74,100,5.21,JP,1594579656
Teguise,29.06,-13.56,78.8,65,20,17.22,ES,1594579657
Solnechnyy,50.72,136.63,59.07,86,52,2.15,RU,1594579657
Kirkkonummi,60.12,24.44,62.01,77,0,8.97,FI,1594579657
Yinchuan,38.47,106.27,72.97,59,0,4.21,CN,1594579657
Chekalin,54.1,36.24,68.0,82,15,6.71,RU,1594579657
Partizanskoye,55.5,94.39,52.68,89,1,3.04,RU,1594579657
Jönköping,57.78,14.16,60.8,55,28,11.41,SE,1594579657
Atasū,48.68,71.64,71.31,62,0,8.32,KZ,1594579654
Hamilton,39.18,-84.53,84.0,57,75,8.05,US,1594579650
Jos,9.92,8.9,65.82,95,100,1.68,NG,1594579658
Nantucket,41.28,-70.1,80.01,78,1,14.99,US,1594579658
Omboué,-1.57,9.26,73.09,88,96,9.37,GA,1594579658
Aykhal,66.0,111.5,55.4,66,0,4.47,RU,1594579658
Znamenskoye,57.13,73.83,56.89,73,20,4.92,RU,1594579658
Thunder Bay,48.4,-89.32,80.01,47,75,3.36,CA,1594579410
Barranca,-10.75,-77.77,65.44,67,8,7.96,PE,1594579659
Balabac,7.99,117.06,81.45,76,100,6.62,PH,1594579659
Spruce Grove,53.53,-113.92,64.0,72,75,5.82,CA,1594579659
Onoda,34.0,131.18,73.4,83,75,4.7,JP,1594579659
Litovko,49.24,135.17,60.03,88,0,0.54,RU,1594579659
Tura,25.52,90.22,74.93,97,71,6.13,IN,1594579659
Sedkyrkeshch,61.75,50.92,62.6,63,0,2.24,RU,1594579659
Mwinilunga,-11.74,24.43,66.74,41,1,7.27,ZM,1594579659
Mackenzie,55.3,-123.17,51.8,71,90,8.05,CA,1594579522
Valley City,46.92,-98.0,78.8,57,20,10.29,US,1594579502
Prado,-17.34,-39.22,75.06,75,86,6.76,BR,1594579660
Anshun,26.25,105.93,66.42,98,100,7.4,CN,1594579660
Sharjah city,25.36,55.4,102.2,24,0,4.7,AE,1594579661
Lagos,6.58,3.75,78.8,83,40,4.7,NG,1594579661
Brownwood,31.71,-98.99,95.0,44,1,13.87,US,1594579661
Tateyama,34.98,139.87,70.0,91,100,1.99,JP,1594579661
Aswān,24.09,32.91,92.44,14,0,15.26,EG,1594579661
Lavaca,28.61,-96.63,93.2,63,40,10.29,US,1594579661
Vanimo,-2.67,141.3,78.15,81,99,0.98,PG,1594579661
Codrington,-38.27,141.97,43.86,92,1,2.71,AU,1594579661
Egvekinot,66.32,-179.17,55.04,50,16,2.95,RU,1594579661
Bambanglipuro,-7.95,110.28,73.53,87,100,4.97,ID,1594579662
Corning,42.14,-77.05,84.2,39,1,9.17,US,1594579642
Eurajoki,61.2,21.73,55.4,82,20,8.05,FI,1594579662
Kamyzyak,46.11,48.07,86.0,40,49,6.71,RU,1594579662
Fairview,40.81,-74.0,89.6,48,1,8.05,US,1594579527
Hammerfest,70.66,23.68,55.4,62,85,11.41,NO,1594579662
Redlands,34.06,-117.18,97.0,16,5,6.35,US,1594579519
Dzhebariki-Khaya,62.22,135.8,63.73,74,37,3.36,RU,1594579662
Balkhash,46.84,74.98,75.87,38,94,9.6,KZ,1594579563
Nabisar,25.07,69.64,86.59,64,93,20.8,PK,1594579662
Mittagong,-34.45,150.45,51.01,94,100,1.23,AU,1594579663
Zaria,11.11,7.72,72.54,86,100,9.19,NG,1594579540
Taft,31.75,54.21,91.4,18,20,9.17,IR,1594579663
