City,Lat,Lon,Max Temp,Humidity,Cloudiness,Wind Speed,Country,Date
Cockburn Town,21.46,-71.14,84.2,70,40,11.41,TC,1594600155
Meulaboh,4.14,96.13,76.42,78,100,2.08,ID,1594600155
Bredasdorp,-34.53,20.04,62.6,48,0,19.46,ZA,1594600085
Mataura,-46.19,168.86,42.94,86,86,3.98,NZ,1594600044
Clovis,36.83,-119.7,109.99,12,20,6.93,US,1594599986
Maceió,-9.67,-35.74,73.4,88,75,1.12,BR,1594600052
Kapaa,22.08,-159.32,82.4,69,40,20.8,US,1594599970
Ushuaia,-54.8,-68.3,35.6,80,40,18.34,AR,1594600046
Hofn,64.25,-15.21,50.95,87,100,8.08,IS,1594600156
Saint Paul Harbor,57.79,-152.41,57.2,62,90,9.17,US,1594599893
Nikolskoye,59.7,30.79,51.8,81,59,2.24,RU,1594600119
Tasiilaq,65.61,-37.64,37.4,86,0,9.17,GL,1594600068
Ngozi,-2.91,29.83,56.16,87,9,2.17,BI,1594600156
Tautira,-17.73,-149.15,82.4,58,75,8.05,PF,1594600156
Adeje,28.12,-16.73,75.0,78,0,8.05,ES,1594600156
Krivosheino,57.34,83.93,59.94,97,98,8.48,RU,1594600157
Punta Arenas,-53.15,-70.92,33.8,84,72,8.05,CL,1594599818
Chillicothe,39.33,-82.98,73.99,73,40,5.82,US,1594599939
Yazykovo,55.22,56.14,58.89,88,0,3.4,RU,1594600157
Poronaysk,49.22,143.12,56.26,91,97,3.36,RU,1594600157
Busselton,-33.65,115.33,55.0,99,44,1.99,AU,1594599903
Camacha,33.08,-16.33,68.0,77,40,10.29,PT,1594600130
Hanna,51.63,-111.9,61.54,66,49,5.28,CA,1594600158
Orange Cove,36.62,-119.31,102.2,24,1,8.52,US,1594600158
New Norfolk,-42.78,147.06,44.01,92,0,1.68,AU,1594600058
Weinan,34.5,109.51,77.0,94,18,6.71,CN,1594600158
Hermanus,-34.42,19.23,55.99,83,44,15.99,ZA,1594600053
Cape Town,-33.93,18.42,59.0,93,75,28.86,ZA,1594599875
Zarubino,42.63,131.09,64.42,87,77,6.26,RU,1594600159
Atuona,-9.8,-139.03,79.83,76,2,20.22,PF,1594600052
Upernavik,72.79,-56.15,41.79,87,94,9.75,GL,1594600066
Ribeira Grande,38.52,-28.7,68.7,83,2,15.68,PT,1594600069
Henties Bay,-22.12,14.28,54.0,94,0,3.0,NA,1594600159
Yellowknife,62.46,-114.35,71.6,49,75,3.36,CA,1594599902
Biak,-0.91,122.88,78.89,79,28,7.14,ID,1594600159
Kruisfontein,-34.0,24.73,58.23,32,0,15.64,ZA,1594600055
Jamestown,42.1,-79.24,72.0,73,1,6.93,US,1594599993
Springdale,36.19,-94.13,87.8,40,1,8.05,US,1594600063
‘Ewa Beach,21.32,-158.01,86.0,51,75,6.93,US,1594600160
Coxim,-18.51,-54.76,77.65,46,54,1.74,BR,1594600160
Khatanga,71.97,102.5,59.58,66,74,18.61,RU,1594599846
Albany,42.6,-73.97,82.99,53,10,5.44,US,1594600045
Porrentruy,47.42,7.08,59.0,81,54,3.36,CH,1594600161
Enumclaw,47.2,-121.99,73.0,53,45,4.0,US,1594600161
Al Bardīyah,31.76,25.09,73.35,85,0,17.85,LY,1594600161
Zyryanka,65.75,150.85,75.87,38,100,3.8,RU,1594600161
Hobart,-42.88,147.33,45.0,87,75,5.82,AU,1594599863
Puerto Ayora,-0.74,-90.35,68.0,90,81,1.01,EC,1594600065
Saskylakh,71.92,114.08,63.0,60,93,17.63,RU,1594600068
Rikitea,-23.12,-134.97,71.22,72,3,15.03,PF,1594599976
Praia da Vitória,38.73,-27.07,68.0,88,20,9.44,PT,1594600087
Bluff,-46.6,168.33,47.05,68,91,10.38,NZ,1594600046
Faya,18.39,42.45,73.4,53,20,9.17,SA,1594600089
Vaini,-21.2,-175.2,73.4,73,75,17.22,TO,1594600077
Caravelas,-17.71,-39.25,70.57,87,63,3.31,BR,1594600162
Tripoli,32.88,13.19,75.34,73,0,6.08,LY,1594600162
Chokurdakh,70.63,147.92,70.3,45,61,9.66,RU,1594600095
Butaritari,3.07,172.79,83.71,75,64,11.88,KI,1594600086
Saint-Philippe,-21.36,55.77,64.4,72,40,8.05,RE,1594600061
Kumul,42.8,93.45,76.91,34,53,11.92,CN,1594600149
Simplício Mendes,-7.85,-41.91,76.55,59,59,6.02,BR,1594600163
Sabang,5.89,95.32,82.13,72,100,4.63,ID,1594600163
Lompoc,34.64,-120.46,73.0,64,0,13.87,US,1594600163
Srednekolymsk,67.45,153.68,70.77,46,24,7.67,RU,1594600163
Naze,28.37,129.48,86.0,84,75,8.05,JP,1594600163
East London,-33.02,27.91,58.8,43,0,15.03,ZA,1594600100
Airai,-8.93,125.41,63.61,78,95,5.77,TL,1594600070
Rundu,-17.93,19.77,46.4,39,0,1.12,NA,1594600164
Plaisance-du-Touch,43.57,1.3,69.8,77,54,5.82,FR,1594600164
Emba,48.83,58.14,83.17,45,71,11.25,KZ,1594600164
Atar,20.52,-13.05,92.52,35,9,7.49,MR,1594600084
Chipinge,-20.19,32.62,44.13,89,0,3.4,ZW,1594600164
Port Elizabeth,-33.92,25.57,62.6,29,0,11.41,ZA,1594600088
Jumla,29.27,82.18,57.58,68,40,2.26,NP,1594600164
Ayagoz,47.97,80.44,61.11,61,19,2.39,KZ,1594600165
Port Alfred,-33.59,26.89,58.23,36,0,10.2,ZA,1594600048
Hilo,19.73,-155.09,84.2,58,20,9.17,US,1594599791
Salinas,36.68,-121.66,75.99,49,1,14.99,US,1594600153
Esim,4.87,-2.24,74.64,88,59,8.61,GH,1594600126
Nhulunbuy,-12.23,136.77,78.8,50,75,21.92,AU,1594600165
Dingle,11.0,122.67,81.7,81,92,2.51,PH,1594600165
Vila,42.03,-8.16,69.8,68,0,2.24,PT,1594600166
Nome,64.5,-165.41,68.0,63,1,12.75,US,1594600136
Bintulu,3.17,113.03,80.6,83,20,2.24,MY,1594600166
Cabo San Lucas,22.89,-109.91,95.0,41,40,11.41,MX,1594599915
Vila Franca do Campo,37.72,-25.43,68.0,72,75,5.82,PT,1594600086
Rantauprapat,2.1,99.83,72.66,93,97,1.5,ID,1594600166
Avarua,-21.21,-159.78,68.0,88,98,4.7,CK,1594600088
Ampanihy,-24.7,44.75,62.28,85,46,3.8,MG,1594600166
Maningrida,-12.07,134.27,74.19,47,100,17.16,AU,1594600167
Cayenne,4.93,-52.33,77.0,100,31,2.24,GF,1594600076
La Macarena,2.18,-73.78,73.53,95,71,3.74,CO,1594600167
Qaanaaq,77.48,-69.36,45.91,63,82,3.13,GL,1594600046
Lakes Entrance,-37.88,147.98,55.99,91,61,5.99,AU,1594600167
Naryan-Mar,67.67,53.09,43.36,88,100,11.1,RU,1594600167
Harbour Breton,47.48,-55.8,60.78,98,100,14.23,CA,1594600167
Naco,31.33,-109.95,100.99,12,4,4.0,MX,1594600168
Atasū,48.68,71.64,67.46,76,0,8.05,KZ,1594600168
Domoni,-12.26,44.53,75.24,75,7,5.75,KM,1594600168
Faanui,-16.48,-151.75,79.02,75,100,14.72,PF,1594600121
Kalakamati,-20.59,27.31,42.76,60,0,7.92,BW,1594600169
Gigmoto,13.78,124.39,80.47,80,100,3.44,PH,1594600169
Pangnirtung,66.15,-65.71,48.81,61,43,1.5,CA,1594600169
Tamworth,52.63,-1.7,60.8,59,5,2.24,GB,1594600169
Clyde River,70.47,-68.59,42.8,87,20,6.93,CA,1594600163
Japura,-0.32,102.35,74.35,97,95,2.48,ID,1594600169
Leningradskiy,69.38,178.42,43.32,70,57,11.74,RU,1594600169
Altamira,-3.2,-52.21,76.57,84,75,1.23,BR,1594600082
George Town,5.41,100.34,80.6,94,20,5.73,MY,1594600129
Barrow,71.29,-156.79,39.2,90,90,9.17,US,1594600047
Zeya,53.75,127.27,85.14,51,43,2.57,RU,1594600170
Bambous Virieux,-20.34,57.76,72.0,83,75,12.75,MU,1594600170
Panzhihua,26.59,101.71,70.0,83,100,1.19,CN,1594600170
Tessalit,20.2,1.01,91.63,28,29,8.7,ML,1594600166
Mwinilunga,-11.74,24.43,57.38,45,2,5.35,ZM,1594600147
Santa Maria,-29.68,-53.81,55.4,93,85,2.24,BR,1594599893
Nioro,13.35,-15.75,76.24,88,100,4.9,GM,1594600171
Aksay,47.26,39.87,75.2,57,40,13.42,RU,1594600171
Nanortalik,60.14,-45.24,46.6,87,100,3.33,GL,1594600051
Hambantota,6.12,81.12,80.56,81,97,15.61,LK,1594600171
Uppsala County,60.0,17.75,46.99,93,43,1.12,SE,1594600171
Maniitsoq,65.42,-52.9,46.04,78,100,15.3,GL,1594600171
Longyearbyen,78.22,15.64,46.4,75,75,2.24,SJ,1594600058
Adrar,20.5,-10.07,94.37,30,42,6.29,MR,1594600124
Summerville,33.02,-80.18,88.0,62,1,5.97,US,1594599930
Severo-Kuril'sk,50.68,156.12,49.98,91,100,6.76,RU,1594600120
Brookings,44.31,-96.8,80.6,51,1,8.05,US,1594600172
Terrace Bay,48.78,-87.1,62.35,65,51,8.61,CA,1594600172
Hobyo,5.35,48.53,78.84,77,32,17.45,SO,1594600172
Te Anau,-45.42,167.72,40.75,76,4,0.54,NZ,1594600172
Provideniya,64.38,-173.3,50.0,81,40,17.9,RU,1594600070
Talcahuano,-36.72,-73.12,53.6,100,90,4.7,CL,1594600173
Rudnaya Pristan',44.36,135.81,64.67,75,46,2.71,RU,1594600173
Pisco,-13.7,-76.22,61.0,87,40,4.7,PE,1594600063
Christchurch,-43.53,172.63,50.0,70,41,3.36,NZ,1594600062
Mednogorskiy,43.92,41.18,61.99,78,100,4.25,RU,1594600173
Dikson,73.51,80.55,41.49,97,98,4.99,RU,1594600069
Solnechnyy,50.72,136.63,74.52,61,55,3.53,RU,1594600173
Pangody,65.85,74.49,55.2,92,100,10.4,RU,1594600173
San José del Guaviare,2.57,-72.65,74.43,94,74,2.66,CO,1594600174
Les Cayes,18.2,-73.75,80.01,77,17,4.56,HT,1594600174
Connersville,39.64,-85.14,75.99,88,1,6.22,US,1594600174
Žemaičių Naumiestis,55.36,21.7,49.93,93,0,4.5,LT,1594600174
Batesville,35.77,-91.64,87.8,43,1,5.82,US,1594600063
Coari,-4.08,-63.14,75.02,91,79,1.88,BR,1594600174
Villarrica,-25.75,-56.43,64.78,96,2,5.14,PY,1594600174
Opuwo,-18.06,13.84,50.61,53,0,3.74,NA,1594600102
Chui,-33.7,-53.46,44.87,66,40,9.93,UY,1594600078
Castro,-24.79,-50.01,58.78,84,4,5.41,BR,1594600052
Codrington,-38.27,141.97,51.28,84,1,3.47,AU,1594600077
Fortuna,40.6,-124.16,69.01,68,1,17.22,US,1594600161
São Luís,-2.53,-44.3,80.6,88,56,6.93,BR,1594600175
Rio Grande,-32.03,-52.1,44.01,98,74,12.55,BR,1594599959
Ponta do Sol,32.67,-17.1,69.8,64,20,11.41,PT,1594600067
La Ronge,55.1,-105.28,66.2,88,90,4.7,CA,1594600093
Thompson,55.74,-97.86,71.6,60,75,6.93,CA,1594600075
Ol'ga,43.74,135.29,69.04,66,16,3.49,RU,1594600176
Rock Hill,34.92,-81.03,84.99,58,1,3.36,US,1594600123
Tiksi,71.69,128.87,64.15,52,74,8.46,RU,1594599846
Ambulu,-8.35,113.61,74.8,85,96,2.68,ID,1594600103
Belgrade,44.8,20.47,57.2,82,4,4.7,RS,1594600176
Kavieng,-2.57,150.8,83.73,69,99,4.65,PG,1594600176
Westport,41.14,-73.36,84.0,61,1,8.05,US,1594600176
Garoua,9.3,13.4,73.78,87,84,3.36,CM,1594600177
Ishigaki,24.34,124.16,87.8,79,75,5.82,JP,1594600177
Quang Ngai,15.12,108.8,81.03,74,12,3.71,VN,1594599881
Bathsheba,13.22,-59.52,82.4,78,20,14.99,BB,1594600049
Saint-Joseph,-21.37,55.62,64.4,72,24,8.05,RE,1594600177
Encheng,22.18,112.3,83.88,77,37,0.2,CN,1594600177
Taltal,-25.4,-70.48,55.17,80,25,2.98,CL,1594600177
Coyhaique,-45.58,-72.07,30.2,86,20,2.24,CL,1594600178
Sola,-13.88,167.55,80.6,78,90,23.04,VU,1594600178
Pevek,69.7,170.31,49.21,70,69,6.15,RU,1594600178
Norman Wells,65.28,-126.83,66.2,63,75,5.82,CA,1594600122
Port Hardy,50.7,-127.42,59.0,82,75,8.05,CA,1594600162
Touros,-5.2,-35.46,71.6,94,20,3.36,BR,1594600121
Huarmey,-10.07,-78.15,62.62,81,16,6.6,PE,1594600053
Vestmannaeyjar,63.44,-20.27,50.58,92,100,4.29,IS,1594600136
Salalah,17.02,54.09,80.6,94,90,3.36,OM,1594600092
Zwedru,6.07,-8.13,70.23,96,75,2.84,LR,1594600179
Kupang,-10.17,123.58,82.4,65,20,14.99,ID,1594600144
Hithadhoo,-0.6,73.08,84.83,72,71,9.19,MV,1594600179
Pemba,-12.97,40.52,71.73,87,17,14.27,MZ,1594600179
Morón,-34.65,-58.62,53.01,44,68,4.0,AR,1594599920
Pitiquito,30.7,-112.08,104.0,24,0,5.01,MX,1594600179
Pochutla,15.74,-96.47,84.99,75,96,1.83,MX,1594600179
Coquimbo,-29.95,-71.34,55.4,82,59,3.36,CL,1594600062
Ostrovnoy,68.05,39.51,47.71,91,100,7.61,RU,1594600180
Soria,41.67,-2.67,55.99,89,77,1.01,ES,1594600180
Tuktoyaktuk,69.45,-133.04,57.2,62,75,10.29,CA,1594600044
Foz,43.57,-7.25,61.0,96,3,15.99,ES,1594600180
Coldingham,55.89,-2.16,57.0,79,93,4.0,GB,1594600180
Bhindār,24.5,74.18,77.74,86,100,11.59,IN,1594600181
Carnarvon,-24.87,113.63,59.0,93,14,4.7,AU,1594599925
Nantucket,41.28,-70.1,73.0,83,1,10.29,US,1594600181
Korla,41.76,86.15,72.0,71,21,4.0,CN,1594600181
Mayo,38.89,-76.51,84.2,65,90,8.05,US,1594600181
Grindavik,63.84,-22.43,48.2,93,75,5.82,IS,1594600181
Berlevåg,70.86,29.09,47.34,87,5,3.4,NO,1594600181
Guilin,25.28,110.29,82.4,83,20,2.24,CN,1594600182
Mahébourg,-20.41,57.7,69.8,83,75,12.75,MU,1594600099
Yevsino,54.42,83.32,61.16,98,100,7.16,RU,1594600182
Mitsamiouli,-11.38,43.28,77.22,71,0,4.05,KM,1594600182
Lebu,-37.62,-73.65,48.36,90,100,8.9,CL,1594600052
Sokol,59.46,40.12,52.52,96,77,2.82,RU,1594600182
Koumac,-20.57,164.28,76.53,57,2,1.86,NC,1594600182
Ilulissat,69.22,-51.1,48.2,70,23,1.12,GL,1594600108
Nacala,-14.54,40.67,67.39,93,2,8.48,MZ,1594600183
Tiznit Province,29.58,-9.5,83.86,33,59,4.68,MA,1594600183
Mount Isa,-20.73,139.5,57.2,41,0,19.46,AU,1594600072
Anadyr,64.75,177.48,57.2,82,40,4.47,RU,1594600183
Kaitangata,-46.28,169.85,46.99,64,3,5.99,NZ,1594600120
Jacareacanga,-6.22,-57.75,79.11,69,90,1.32,BR,1594600165
Cherskiy,68.75,161.3,54.52,89,100,2.82,RU,1594600079
Rawson,-43.3,-65.1,40.24,67,0,19.86,AR,1594600173
Bethel,41.37,-73.41,81.0,61,1,5.75,US,1594600001
Labuhan,-6.88,112.21,76.24,84,89,7.72,ID,1594600050
Pointe-Noire,-4.78,11.86,71.6,94,75,4.7,CG,1594600184
Meadow Lake,34.8,-106.54,96.8,13,75,18.34,US,1594600184
Aitape,-3.14,142.35,83.68,67,97,0.72,PG,1594600110
Hong Kong,22.29,114.16,88.0,74,11,4.0,HK,1594600068
Los Llanos de Aridane,28.66,-17.92,71.6,73,75,10.29,ES,1594600184
Aklavik,68.22,-135.01,59.0,62,90,2.24,CA,1594600184
Torbay,47.67,-52.73,55.99,93,90,23.04,CA,1594600185
Tchaourou,8.89,2.6,72.7,95,93,6.42,BJ,1594600185
Constitución,-35.33,-72.42,52.86,84,100,6.26,CL,1594599925
Kismayo,-0.36,42.55,77.76,80,100,15.39,SO,1594600185
Vao,-22.67,167.48,71.96,79,62,19.64,NC,1594600161
Yumen,40.28,97.2,75.15,24,100,13.53,CN,1594600185
Bom Jesus da Lapa,-13.26,-43.42,71.6,39,58,5.79,BR,1594600185
Las Vegas,36.17,-115.14,114.8,8,1,17.22,US,1594599454
Verkhnyaya Inta,65.98,60.31,55.31,94,60,16.71,RU,1594600185
Hamilton,39.18,-84.53,75.99,69,1,5.82,US,1594600186
Kahului,20.89,-156.47,89.6,43,40,25.28,US,1594600186
Lüderitz,-26.65,15.16,51.8,87,2,5.82,NA,1594600132
Mar del Plata,-38.0,-57.56,42.8,60,1,23.04,AR,1594600081
Puerto Nariño,-3.77,-70.38,77.0,100,75,3.36,CO,1594600186
Wittenberge,53.0,11.75,54.0,86,25,4.0,DE,1594600186
Qasigiannguit,68.82,-51.19,48.2,70,36,1.12,GL,1594600186
Aswān,24.09,32.91,82.85,23,23,9.57,EG,1594600172
Whitehorse,60.72,-135.05,66.2,37,75,17.22,CA,1594600107
Nanyamba,-10.68,39.83,65.66,95,18,4.36,TZ,1594600187
Wajid,3.81,43.25,73.2,79,41,19.08,SO,1594600187
Kambam,5.25,96.86,77.92,74,100,2.95,ID,1594600187
Rocha,-34.48,-54.33,41.63,67,59,8.21,UY,1594600187
Vardø,70.37,31.11,46.65,90,59,3.33,NO,1594600187
Mogadishu,2.04,45.34,77.2,85,93,17.6,SO,1594600187
Agropoli,40.35,15.0,75.0,62,0,5.99,IT,1594600187
Heishan,41.69,122.11,77.67,71,100,5.86,CN,1594600187
Ulladulla,-35.35,150.47,55.4,76,40,5.82,AU,1594600188
Aquiraz,-3.9,-38.39,78.8,78,61,9.17,BR,1594600144
Thunder Bay,48.4,-89.32,73.4,56,75,5.82,CA,1594600135
Ibipeba,-11.64,-42.01,67.14,65,34,6.29,BR,1594600188
Puerto Escondido,15.85,-97.07,84.2,66,90,5.82,MX,1594600188
Nador,35.17,-2.93,75.2,94,90,3.36,MA,1594600188
Seymchan,62.88,152.43,76.39,38,52,5.93,RU,1594600188
Puro,12.48,123.38,83.59,74,100,3.18,PH,1594600189
Ushtobe,45.25,77.98,62.98,50,0,2.04,KZ,1594600189
Egvekinot,66.32,-179.17,57.52,46,98,5.68,RU,1594600154
Kyabé,9.45,18.94,75.61,82,95,2.57,TD,1594600189
Bagdarin,54.43,113.6,67.26,75,42,2.15,RU,1594600189
Finschhafen,-6.6,147.87,83.55,66,100,9.1,PG,1594600189
Somerville,42.39,-71.1,86.0,51,20,11.41,US,1594600183
Betafo,-19.83,46.85,51.26,81,16,3.44,MG,1594600189
Honiara,-9.43,159.95,86.0,79,75,9.17,SB,1594599976
Nautla,20.22,-96.78,85.64,66,17,11.81,MX,1594600190
Port Lincoln,-34.73,135.87,54.86,77,17,2.89,AU,1594600190
Sfântu Gheorghe,45.87,25.78,55.0,91,100,2.93,RO,1594600190
Bonavista,48.65,-53.11,57.99,85,97,7.0,CA,1594600190
Geraldton,-28.77,114.6,53.6,62,1,16.11,AU,1594600155
Saldanha,-33.01,17.94,57.2,93,65,17.22,ZA,1594600071
Saint Anthony,45.02,-93.22,84.0,39,20,3.36,US,1594599882
Juneau,58.3,-134.42,55.4,87,90,12.75,US,1594600191
Bengkulu,-3.8,102.27,74.55,88,71,3.04,ID,1594600142
Comodoro Rivadavia,-45.87,-67.5,41.0,60,4,16.11,AR,1594600191
Lubango,-14.92,13.49,57.78,36,0,4.9,AO,1594600175
Thinadhoo,0.53,72.93,84.96,67,92,5.97,MV,1594600133
Chicama,-7.84,-79.15,63.14,81,11,5.06,PE,1594600160
Batagay,67.63,134.63,79.27,53,60,3.62,RU,1594600085
Sitka,57.05,-135.33,57.2,76,90,9.17,US,1594600188
Verāval,20.9,70.37,82.98,82,69,14.7,IN,1594600192
San Cristobal,7.77,-72.22,78.8,78,40,2.24,VE,1594600111
Saint George,37.1,-113.58,108.0,12,1,16.11,US,1594599945
Bryant,34.6,-92.49,91.4,49,1,4.7,US,1594600192
Darya Khan,31.79,71.1,92.17,47,76,3.76,PK,1594600192
Tual,-5.67,132.75,79.07,81,44,22.41,ID,1594600192
Fairbanks,64.84,-147.72,71.6,28,40,14.99,US,1594599915
Lerwick,60.15,-1.15,53.6,87,99,12.75,GB,1594600192
Olafsvik,64.89,-23.71,50.79,83,58,4.18,IS,1594600193
Jaisalmer,26.91,70.92,82.81,69,44,17.63,IN,1594600193
Nānākuli,21.39,-158.15,86.0,51,75,6.93,US,1594600109
Oodweyne,9.41,45.06,73.18,56,25,20.27,SO,1594600193
Vila Velha,-20.33,-40.29,73.4,73,32,6.93,BR,1594600160
Recea,47.63,23.52,54.0,81,84,2.24,RO,1594600193
Hay River,60.82,-115.8,66.2,63,75,3.36,CA,1594600193
São João da Barra,-21.64,-41.05,71.87,85,81,17.29,BR,1594600193
Lugovoy,42.95,72.76,63.16,41,0,4.16,KZ,1594600194
Pokhara,28.23,83.98,72.55,78,93,1.54,NP,1594600062
Poiana Stampei,47.32,25.13,46.99,85,96,3.85,RO,1594600194
Coos Bay,43.37,-124.22,75.99,68,1,21.92,US,1594599944
General Roca,-39.03,-67.58,44.6,52,100,4.7,AR,1594600194
Muroto-misakicho,33.28,134.15,75.2,83,75,5.82,JP,1594600194
Savannah Bight,16.45,-85.85,82.87,81,74,22.48,HN,1594600194
Esperance,-33.87,121.9,48.2,61,2,20.8,AU,1594600116
Saint-Pierre,-21.34,55.48,64.4,72,15,8.05,RE,1594600195
Kamenka,51.32,42.77,66.99,79,67,4.0,RU,1594600195
Biskamzha,53.45,89.53,58.95,84,69,1.1,RU,1594600195
Lata,40.16,-8.33,72.0,73,0,2.37,PT,1594600067
Teya,60.38,92.63,65.64,62,55,5.17,RU,1594600195
Avera,33.19,-82.53,86.0,70,1,4.7,US,1594600195
Sirte,31.21,16.59,75.45,83,0,9.31,LY,1594600195
Laas,46.62,10.7,51.8,87,5,3.36,IT,1594600195
Waliso,8.53,37.98,56.14,91,72,1.39,ET,1594600196
Pontianak,-0.03,109.33,76.19,93,97,3.09,ID,1594600196
Topolobampo,25.6,-109.05,95.0,46,75,17.22,MX,1594600196
Antalaha,-14.9,50.28,68.29,88,31,6.4,MG,1594600196
Iqaluit,63.75,-68.51,55.4,71,40,10.29,CA,1594600196
Erzin,36.96,36.2,79.0,89,51,3.74,TR,1594600196
Bucerías,20.75,-105.33,81.0,88,90,4.7,MX,1594600196
Bilibino,68.05,166.44,62.47,77,79,3.87,RU,1594599798
Ürümqi,43.8,87.6,69.8,49,40,8.95,CN,1594600197
Talnakh,69.49,88.4,55.4,71,96,6.71,RU,1594600090
Madison,34.73,-86.57,82.99,74,1,5.82,US,1594599613
Hasaki,35.73,140.83,72.0,93,75,3.36,JP,1594600078
Husavik,66.04,-17.34,51.8,87,20,2.24,IS,1594600184
Plettenberg Bay,-34.05,23.37,64.04,33,0,9.42,ZA,1594600177
Port Macquarie,-31.43,152.92,57.99,82,1,8.9,AU,1594600104
Mana,5.66,-53.78,78.04,87,42,9.26,GF,1594600198
Asău,46.43,26.4,53.01,91,100,4.45,RO,1594600198
Yima,34.74,111.88,70.41,78,43,4.14,CN,1594600198
Yangi Marg`ilon,40.43,71.72,73.4,53,97,4.7,UZ,1594600176
Fort-Shevchenko,44.51,50.26,83.14,34,0,17.96,KZ,1594600198
Cao Bang,22.67,106.25,78.19,85,99,2.06,VN,1594600068
Limbang,4.75,115.0,80.6,83,75,3.36,MY,1594600198
Tromsø,69.65,18.96,50.0,93,75,4.7,NO,1594600198
Innisfail,-17.53,146.03,68.0,95,84,1.01,AU,1594600198
Assiniboia,49.63,-105.98,80.6,35,94,10.36,CA,1594600199
Mareeba,-17.0,145.43,77.0,57,74,11.41,AU,1594600199
Yantal',56.85,105.25,67.26,53,4,3.29,RU,1594600199
Mandurah,-32.55,115.7,62.01,83,46,1.99,AU,1594600199
Sechura,-5.56,-80.82,66.67,74,7,16.55,PE,1594600199
Paris,48.85,2.35,66.2,52,62,8.05,FR,1594599952
Amuntai,-2.42,115.25,73.69,98,100,0.96,ID,1594600200
Okhotsk,59.38,143.3,68.52,55,32,7.09,RU,1594600161
Ancud,-41.87,-73.82,37.99,73,77,1.12,CL,1594600091
Buta,2.79,24.73,70.34,97,92,0.65,CD,1594600200
Chapais,49.78,-74.85,60.8,100,90,8.05,CA,1594600110
Fernley,39.61,-119.25,99.0,9,0,5.99,US,1594600200
Maramag,7.82,124.95,76.78,78,96,1.86,PH,1594600201
Tuatapere,-46.13,167.68,45.36,69,59,4.14,NZ,1594600063
Brawley,32.98,-115.53,114.8,13,90,8.05,US,1594600201
San Patricio,19.22,-104.7,84.2,79,75,13.87,MX,1594600132
Palmer,42.16,-72.33,84.2,51,40,10.29,US,1594600199
Sheboygan,43.73,-87.93,73.4,64,40,3.36,US,1594600202
Narsaq,60.92,-46.05,51.8,57,100,4.7,GL,1594600087
Padang,-0.95,100.35,77.34,81,100,4.14,ID,1594600202
Warrnambool,-38.38,142.48,55.99,92,0,8.59,AU,1594600202
Harrison,30.41,-89.04,93.2,56,1,6.93,US,1594600030
Alyangula,-13.85,136.42,73.4,56,44,21.27,AU,1594600202
General Pico,-35.66,-63.76,46.63,62,100,11.9,AR,1594599960
Mount Gambier,-37.83,140.77,48.2,100,0,3.49,AU,1594600099
Isangel,-19.55,169.27,78.8,65,75,11.41,VU,1594600051
Port Blair,11.67,92.75,82.69,78,100,14.47,IN,1594600203
Poim,53.03,43.19,63.99,91,100,7.43,RU,1594600203
Tarija,-21.54,-64.73,54.64,51,0,2.04,BO,1594600203
Sambava,-14.27,50.17,69.51,86,92,10.16,MG,1594600204
Taoudenni,22.68,-3.98,94.5,33,13,6.04,ML,1594600204
Wangaratta,-36.37,146.33,50.0,100,98,4.7,AU,1594600204
Baghmara,23.8,86.21,84.99,71,97,5.44,IN,1594600204
Bubaque,11.28,-15.83,79.05,85,100,16.04,GW,1594600165
Andahuaylas,-13.66,-73.39,49.95,70,3,0.65,PE,1594600205
Dom Pedro,-4.48,-44.45,73.49,77,11,1.1,BR,1594600205
Wabana,47.63,-52.95,55.99,93,90,23.04,CA,1594600205
Manono,-7.3,27.42,67.95,39,0,1.43,CD,1594600205
Pingzhuang,42.04,119.29,75.51,53,100,5.7,CN,1594600205
Sept-Îles,50.2,-66.38,68.0,88,90,4.7,CA,1594600206
Banamba,13.55,-7.45,82.29,62,25,8.55,ML,1594600206
Beira,-19.84,34.84,71.6,68,87,9.17,MZ,1594600206
Vigía del Fuerte,6.58,-76.89,77.07,85,100,1.77,CO,1594600206
Alice Springs,-23.7,133.88,52.0,53,0,6.93,AU,1594600072
Omboué,-1.57,9.26,72.97,87,98,7.78,GA,1594600186
Agua Verde,22.9,-106.05,89.6,62,75,9.17,MX,1594600207
Karratha,-20.74,116.85,62.73,29,31,18.34,AU,1594600181
Leopold,-38.18,144.47,55.4,100,14,12.75,AU,1594600207
Misratah,32.38,15.09,75.99,80,0,10.13,LY,1594600207
Tynda,55.17,124.72,86.34,47,10,0.89,RU,1594600207
Beringovskiy,63.05,179.32,51.03,81,99,9.84,RU,1594600154
Chuguyevka,44.17,133.86,77.83,63,40,1.9,RU,1594600207
Onguday,50.75,86.15,56.46,79,100,0.98,RU,1594600135
Savonlinna,61.87,28.88,48.2,100,100,2.24,FI,1594600208
Belmopan,17.25,-88.77,84.0,66,0,5.99,BZ,1594600208
Butembo,0.15,29.28,58.32,99,100,1.45,CD,1594600208
Shelburne,44.08,-80.2,69.8,73,40,5.82,CA,1594600208
Havre-St-Pierre,50.23,-63.6,69.8,94,90,3.36,CA,1594600209
Sioux Lookout,50.1,-91.92,75.2,50,40,4.7,CA,1594600209
Pimenta Bueno,-11.67,-61.19,76.15,59,0,2.28,BR,1594600209
Kushmurun,52.45,64.63,67.44,79,0,4.5,KZ,1594600209
El Alto,-4.27,-81.21,62.2,89,19,18.21,PE,1594600092
Zhalantun,48.0,122.72,83.05,39,87,2.01,CN,1594600209
Ambilobe,-13.2,49.05,64.69,80,6,3.11,MG,1594600167
Vanimo,-2.67,141.3,81.99,79,100,0.85,PG,1594600108
Povenets,62.85,34.83,52.99,83,8,1.1,RU,1594600210
Curuguaty,-24.47,-55.69,69.15,82,48,3.65,PY,1594600210
Russell,32.35,-85.2,73.4,94,1,3.36,US,1594600138
Muros,42.78,-9.06,69.01,61,0,7.0,ES,1594600210
Longonjo,-12.91,15.25,55.45,40,0,3.47,AO,1594600210
Atagay,55.1,99.39,66.07,59,100,3.91,RU,1594600211
Shimoda,34.67,138.95,71.6,83,75,8.05,JP,1594600211
Cabra,37.47,-4.44,77.0,63,0,5.06,ES,1594600101
Vysokogornyy,50.12,139.15,72.7,58,100,1.48,RU,1594600211
Lora del Río,37.66,-5.53,78.01,73,0,5.82,ES,1594600211
Santa Cruz del Sur,20.71,-78.0,82.27,68,100,5.73,CU,1594600211
Kinsale,51.71,-8.53,57.99,93,90,12.75,IE,1594600211
Sisimiut,66.94,-53.67,49.78,66,87,12.33,GL,1594600212
Felanitx,39.47,3.15,77.0,53,100,3.36,ES,1594600212
Mahibadhoo,3.78,72.97,83.23,69,82,4.54,MV,1594600058
Goderich,43.75,-81.72,68.0,80,0,10.45,CA,1594600212
The Valley,18.22,-63.06,84.2,79,40,13.87,AI,1594600158
Thayetmyo,19.32,95.18,78.17,90,100,5.19,MM,1594600212
Pleasant Point,-44.27,171.13,48.99,80,13,4.63,NZ,1594600212
Ajdabiya,30.76,20.23,69.44,90,0,7.85,LY,1594600213
Viedma,-40.81,-63.0,41.34,64,0,13.58,AR,1594600213
Waldoboro,44.1,-69.38,77.0,83,1,8.05,US,1594600213
Pimentel,-6.84,-79.93,62.26,88,2,11.86,PE,1594600213
Norwich,52.63,1.3,57.2,71,48,9.17,GB,1594599965
New Castle,41.0,-80.35,77.0,64,1,5.19,US,1594600214
Maloarkhangel'sk,52.4,36.5,60.15,81,0,3.65,RU,1594600214
NEDJO,9.5,35.5,57.25,99,100,1.81,ET,1594600214
Calatayud,41.35,-1.64,71.6,94,0,3.36,ES,1594600214
Ilo,-17.64,-71.34,58.57,77,38,1.54,PE,1594599983
Yulara,-25.24,130.99,50.0,53,0,9.17,AU,1594600182
Phulpur,25.55,82.1,88.03,66,8,11.41,IN,1594600214
Avezzano,42.04,13.44,70.0,72,90,3.85,IT,1594600214
Acarí,-15.43,-74.62,61.36,55,8,2.28,PE,1594600215
Arraial do Cabo,-22.97,-42.03,72.99,78,69,15.68,BR,1594600009
Guerrero Negro,27.98,-114.06,81.34,42,0,19.66,MX,1594600057
Saint-Augustin,51.23,-58.65,61.07,97,100,12.17,CA,1594600215
Morondava,-20.28,44.28,68.77,83,0,9.64,MG,1594600118
Abancay,-13.63,-72.88,56.08,64,0,3.06,PE,1594600215
Mehamn,71.04,27.85,47.48,83,0,5.06,NO,1594600107
Luwuk,-0.95,122.79,80.02,76,25,5.57,ID,1594600111
College,64.86,-147.8,71.6,30,75,6.93,US,1594600144
Manakara,-22.13,48.02,66.2,90,9,7.76,MG,1594600216
Harper,4.38,-7.72,74.84,81,87,7.61,LR,1594600216
Crawfordsville,40.04,-86.87,77.0,69,1,9.17,US,1594600217
Cidreira,-30.18,-50.21,56.17,87,93,6.02,BR,1594600077
Matagami,49.75,-77.63,53.6,100,90,9.17,CA,1594600137
Buchanan,5.88,-10.05,75.2,100,75,6.6,LR,1594600164
Mpika,-11.83,31.45,56.59,54,0,9.08,ZM,1594600217
Havelock,34.88,-76.9,84.2,74,75,10.29,US,1594600019
Province of Vibo Valentia,38.7,16.13,73.4,94,11,2.24,IT,1594600217
Tornio,65.85,24.15,50.0,100,20,3.36,FI,1594600218
Kavaratti,10.57,72.64,82.45,75,100,10.69,IN,1594600092
Pāsighāt,28.07,95.33,77.41,87,100,1.03,IN,1594600218
Marsh Harbour,26.54,-77.06,82.65,73,85,15.28,BS,1594600218
Alamosa,37.47,-105.87,84.2,22,1,10.29,US,1594600218
Svetlaya,46.54,138.33,65.34,67,57,3.78,RU,1594600119
Imbituba,-28.24,-48.67,64.4,88,40,8.05,BR,1594600218
Douglas,41.3,-96.17,81.0,57,1,11.41,US,1594600219
Benjamin Constant,-4.38,-70.03,77.0,100,75,3.36,BR,1594600219
Nevşehir,38.92,34.67,73.4,49,0,17.22,TR,1594600219
Klaksvík,62.23,-6.59,51.8,87,100,14.99,FO,1594600080
Alta Floresta,-9.88,-56.09,76.05,49,9,3.29,BR,1594600091
Havøysund,71.0,24.66,48.2,81,18,4.7,NO,1594600136
Cairns,-16.92,145.77,77.0,57,31,11.41,AU,1594600219
Copiapó,-27.37,-70.33,51.8,87,1,9.17,CL,1594600193
Port Augusta,-32.5,137.77,50.0,100,90,4.7,AU,1594600220
Davila,18.47,120.58,80.6,83,75,4.7,PH,1594600220
Ilebo,-4.32,20.58,70.02,94,17,0.96,CD,1594600220
Tabou,4.42,-7.35,75.02,81,71,7.92,CI,1594600097
Krasnokamensk,50.1,118.04,77.25,52,93,9.15,RU,1594600220
Ouadda,8.08,22.4,66.92,94,100,2.28,CF,1594600220
Cabedelo,-6.98,-34.83,73.4,88,0,4.7,BR,1594600221
Ningxiang,37.34,111.21,66.63,70,87,0.92,CN,1594600221
Coahuayana Viejo,18.73,-103.68,69.8,88,90,17.22,MX,1594600221
Port Shepstone,-30.74,30.45,53.8,74,0,11.25,ZA,1594600221
Bonthe,7.53,-12.51,76.21,82,98,7.54,SL,1594600221
Bandarbeyla,9.49,50.81,82.06,65,69,30.33,SO,1594600051
Amnat Charoen,15.86,104.63,78.3,83,100,9.35,TH,1594600221
Mossamedes,-15.2,12.15,62.65,75,0,7.94,AO,1594600045
Dumas,35.87,-101.97,102.99,27,1,9.17,US,1594600222
Villiers,-27.03,28.6,35.15,73,0,3.29,ZA,1594600222
Wagar,16.15,36.2,82.65,60,30,28.95,SD,1594600222
Yar-Sale,66.83,70.83,51.96,95,100,13.29,RU,1594600191
São Filipe,14.9,-24.5,74.28,82,73,3.47,CV,1594600125
Awjilah,29.11,21.29,74.86,55,0,13.71,LY,1594600223
Birao,10.28,22.79,72.41,92,100,6.98,CF,1594600223
Asheville,35.6,-82.55,80.01,73,20,0.78,US,1594599947
Udachny,66.42,112.4,62.6,59,64,6.71,RU,1594600188
Zhezkazgan,47.8,67.71,77.07,54,0,10.4,KZ,1594600223
Rāwah,34.48,41.91,83.53,41,0,11.23,IQ,1594600223
Lorengau,-2.02,147.27,85.19,64,62,4.5,PG,1594600137
Safi,32.3,-9.24,70.18,88,0,12.48,MA,1594600223
Margate,51.38,1.39,61.0,76,1,3.13,GB,1594600213
Quatre Cocos,-20.21,57.76,72.0,83,75,12.75,MU,1594600066
Rome,43.21,-75.46,73.4,73,1,3.36,US,1594600224
Aykhal,66.0,111.5,62.6,59,65,6.71,RU,1594600010
Invermere,50.52,-116.04,68.38,25,100,6.29,CA,1594600224
Bayanday,53.07,105.51,67.08,82,88,0.63,RU,1594600224
Half Moon Bay,37.46,-122.43,82.4,72,1,10.29,US,1594600178
Poum,-20.23,164.02,73.87,76,45,9.71,NC,1594600225
Degtyarsk,56.7,60.09,51.8,100,0,2.24,RU,1594600225
Dukat,62.55,155.55,66.45,41,3,4.83,RU,1594600189
Ishinomaki,38.42,141.3,64.4,88,75,8.05,JP,1594600225
Mindelo,16.89,-24.98,77.0,73,40,13.87,CV,1594600225
Vestmanna,62.16,-7.17,51.8,87,100,14.99,FO,1594600149
Anito,12.45,125.29,87.76,59,100,1.88,PH,1594600226
Eyemouth,55.87,-2.09,57.0,79,100,4.0,GB,1594600226
Ocean City,39.28,-74.57,80.6,61,1,8.05,US,1594600226
Beloha,-25.17,45.05,62.11,87,40,5.21,MG,1594600226
Yanta,36.24,115.67,76.14,70,38,7.45,CN,1594600227
Sørland,67.67,12.69,51.71,83,0,8.03,NO,1594600227
Yenagoa,4.92,6.26,73.87,94,96,3.96,NG,1594600186
San Policarpo,12.18,125.51,84.25,70,100,4.23,PH,1594600208
Voh,-20.97,164.7,76.44,68,99,4.16,NC,1594600227
Jaisinghnagar,23.7,81.38,80.73,77,27,8.57,IN,1594600227
Gushikawa,26.35,127.87,87.8,70,1,8.05,JP,1594600215
Barillas,15.8,-91.32,61.88,83,5,1.54,GT,1594600228
Lagoa,39.05,-27.98,68.61,80,0,14.5,PT,1594600105
Troitsko-Pechorsk,62.71,56.2,56.39,74,39,10.0,RU,1594600228
Pacific Grove,36.62,-121.92,75.99,52,1,9.17,US,1594600114
Ahipara,-35.17,173.17,60.35,82,37,11.36,NZ,1594600134
Yarmouth,41.71,-70.23,75.99,79,0,16.6,US,1594600228
Ankazobe,-18.32,47.12,55.4,93,75,4.7,MG,1594600229
Dosso,13.05,3.19,79.05,67,98,19.77,NE,1594600229
Roald,62.58,6.13,50.0,76,45,4.7,NO,1594600226
Grand Island,40.92,-98.34,80.6,61,1,11.41,US,1594600229
Katsuura,35.13,140.3,73.0,77,100,1.01,JP,1594600085
Katima Mulilo,-17.5,24.27,39.2,51,0,1.12,NA,1594600229
Riberalta,-10.98,-66.1,76.78,71,0,2.68,BO,1594600229
Gorontalo,0.54,123.06,85.01,67,63,1.57,ID,1594600230
Alofi,-19.06,-169.92,73.4,94,32,21.92,NU,1594600209
Waingapu,-9.66,120.26,78.75,77,94,13.06,ID,1594600087
Erenhot,43.65,111.98,73.6,55,96,12.93,CN,1594600230
Ulaangom,49.98,92.07,61.66,83,99,6.22,MN,1594600230
Itoman,26.12,127.67,87.8,79,75,10.29,JP,1594600230
Dudinka,69.41,86.18,55.4,71,100,6.71,RU,1594599987
Ferrol,43.48,-8.24,64.99,77,0,5.82,ES,1594600230
Acaraú,-2.89,-40.12,77.67,78,14,15.12,BR,1594600231
Laguna,38.42,-121.42,104.0,10,1,9.17,US,1594600153
Wattegama,6.8,81.48,77.11,76,97,5.91,LK,1594600231
Qaryat Sulūq,31.67,20.25,69.91,91,0,7.83,LY,1594600231
Khonsa,27.02,95.57,72.27,92,99,1.14,IN,1594600231
São Sebastião,-23.76,-45.41,74.59,60,4,5.79,BR,1594599935
Pitkyaranta,61.57,31.48,52.72,86,0,1.99,RU,1594600231
Puerto Ayacucho,5.66,-67.62,84.2,62,40,5.82,VE,1594600231
Djebeniana,35.03,10.91,77.0,73,0,4.54,TN,1594600232
Xinyang,32.12,114.07,68.94,94,100,4.74,CN,1594600232
Port Keats,-14.25,129.55,76.66,24,100,15.39,AU,1594600232
Killam,52.78,-111.85,66.0,62,100,9.89,CA,1594600232
Ixtapa,20.7,-105.2,81.0,88,90,4.7,MX,1594600232
Ayan,56.45,138.17,55.69,83,66,9.91,RU,1594600232
Shuyskoye,59.37,41.03,55.67,88,82,3.76,RU,1594600232
Lexington,37.99,-84.48,81.0,61,1,4.7,US,1594600117
Trelew,-43.25,-65.31,38.71,69,0,16.62,AR,1594600117
Broome,42.25,-75.83,72.0,88,90,11.41,US,1594600168
